$GPRMC,181014.00,A,5243.3579592,N,00719.1710076,W,0.03,314.33,220422,0.0,E,R,V*4D$GPGGA,181014.00,5243.3579592,N,00719.1710076,W,4,13,1.0,60.418,M,56.132,M,0.2,0000*6E$GPGGA,181014.00,5243.3579592,N,00719.1710076,W,4,13,1.0,60.418,M,56.132,M,0.2,0000*6E,,,,613494.9353975108,5842740.972389243,4,1
$GPRMC,181014.40,A,5243.3579602,N,00719.1710076,W,0.05,314.33,220422,0.0,E,R,V*45$GPGGA,181014.40,5243.3579602,N,00719.1710076,W,4,13,1.0,60.424,M,56.132,M,0.2,0000*6F$GPGGA,181014.40,5243.3579602,N,00719.1710076,W,4,13,1.0,60.424,M,56.132,M,0.2,0000*6F,,,,613494.9353542356,5842740.974242973,4,2
$GPRMC,181014.80,A,5243.3579602,N,00719.1710067,W,0.06,314.33,220422,0.0,E,R,V*4A$GPGGA,181014.80,5243.3579602,N,00719.1710067,W,4,13,1.0,60.418,M,56.132,M,0.2,0000*6C$GPGGA,181014.80,5243.3579602,N,00719.1710067,W,4,13,1.0,60.418,M,56.132,M,0.2,0000*6C,,,,613494.9363672147,5842740.97426662,4,3
$GPRMC,181015.20,A,5243.3579592,N,00719.1710063,W,0.02,314.33,220422,0.0,E,R,V*4B$GPGGA,181015.20,5243.3579592,N,00719.1710063,W,4,13,1.0,60.421,M,56.132,M,0.2,0000*63$GPGGA,181015.20,5243.3579592,N,00719.1710063,W,4,13,1.0,60.421,M,56.132,M,0.2,0000*63,,,,613494.9368607027,5842740.9724234,4,4
$GPRMC,181015.60,A,5243.3579594,N,00719.1710076,W,0.04,314.33,220422,0.0,E,R,V*4B$GPGGA,181015.60,5243.3579594,N,00719.1710076,W,4,13,1.0,60.424,M,56.132,M,0.2,0000*60$GPGGA,181015.60,5243.3579594,N,00719.1710076,W,4,13,1.0,60.424,M,56.132,M,0.2,0000*60,,,,613494.9353888558,5842740.972759989,4,5
$GPRMC,181016.00,A,5243.3579591,N,00719.1710068,W,0.05,314.33,220422,0.0,E,R,V*45$GPGGA,181016.00,5243.3579591,N,00719.1710068,W,4,13,1.0,60.422,M,56.132,M,0.2,0000*69$GPGGA,181016.00,5243.3579591,N,00719.1710068,W,4,13,1.0,60.422,M,56.132,M,0.2,0000*69,,,,613494.9363022642,5842740.97222489,4,6
$GPRMC,181016.40,A,5243.3579587,N,00719.1710062,W,0.02,314.33,220422,0.0,E,R,V*4B$GPGGA,181016.40,5243.3579587,N,00719.1710062,W,4,13,1.0,60.422,M,56.132,M,0.2,0000*60$GPGGA,181016.40,5243.3579587,N,00719.1710062,W,4,13,1.0,60.422,M,56.132,M,0.2,0000*60,,,,613494.9369948937,5842740.971499165,4,7
$GPRMC,181016.80,A,5243.3579585,N,00719.1710074,W,0.04,314.33,220422,0.0,E,R,V*44$GPGGA,181016.80,5243.3579585,N,00719.1710074,W,4,13,1.0,60.421,M,56.132,M,-0.0,0000*45$GPGGA,181016.80,5243.3579585,N,00719.1710074,W,4,13,1.0,60.421,M,56.132,M,-0.0,0000*45,,,,613494.93565291,5842740.971096885,4,8
$GPRMC,181017.20,A,5243.3579577,N,00719.1710075,W,0.05,314.33,220422,0.0,E,R,V*42$GPGGA,181017.20,5243.3579577,N,00719.1710075,W,4,13,1.0,60.424,M,56.132,M,0.2,0000*68$GPGGA,181017.20,5243.3579577,N,00719.1710075,W,4,13,1.0,60.424,M,56.132,M,0.2,0000*68,,,,613494.935574977,5842740.969611276,4,9
$GPRMC,181017.60,A,5243.3579586,N,00719.1710064,W,0.05,314.33,220422,0.0,E,R,V*48$GPGGA,181017.60,5243.3579586,N,00719.1710064,W,4,13,1.0,60.422,M,56.132,M,-0.0,0000*4B$GPGGA,181017.60,5243.3579586,N,00719.1710064,W,4,13,1.0,60.422,M,56.132,M,-0.0,0000*4B,,,,613494.9367741147,5842740.971308533,4,10
$GPRMC,181018.00,A,5243.3579584,N,00719.1710058,W,0.05,314.33,220422,0.0,E,R,V*4C$GPGGA,181018.00,5243.3579584,N,00719.1710058,W,4,13,1.0,60.424,M,56.132,M,-0.0,0000*49$GPGGA,181018.00,5243.3579584,N,00719.1710058,W,4,13,1.0,60.424,M,56.132,M,-0.0,0000*49,,,,613494.9374580891,5842740.970953555,4,11
$GPRMC,181018.40,A,5243.3579594,N,00719.1710078,W,0.03,314.33,220422,0.0,E,R,V*4D$GPGGA,181018.40,5243.3579594,N,00719.1710078,W,4,13,1.0,60.419,M,56.132,M,-0.0,0000*40$GPGGA,181018.40,5243.3579594,N,00719.1710078,W,4,13,1.0,60.419,M,56.132,M,-0.0,0000*40,,,,613494.9351637493,5842740.972754734,4,12
$GPRMC,181018.80,A,5243.3579594,N,00719.1710076,W,0.04,314.33,220422,0.0,E,R,V*48$GPGGA,181018.80,5243.3579594,N,00719.1710076,W,4,13,1.0,60.424,M,56.132,M,0.2,0000*63$GPGGA,181018.80,5243.3579594,N,00719.1710076,W,4,13,1.0,60.424,M,56.132,M,0.2,0000*63,,,,613494.9353888558,5842740.972759989,4,13
$GPRMC,181019.20,A,5243.3579599,N,00719.1710062,W,0.05,314.33,220422,0.0,E,R,V*4A$GPGGA,181019.20,5243.3579599,N,00719.1710062,W,4,13,1.0,60.418,M,56.132,M,0.2,0000*6F$GPGGA,181019.20,5243.3579599,N,00719.1710062,W,4,13,1.0,60.418,M,56.132,M,0.2,0000*6F,,,,613494.9369429634,5842740.973723642,4,14
$GPRMC,181019.60,A,5243.3579604,N,00719.1710070,W,0.03,314.33,220422,0.0,E,R,V*4C$GPGGA,181019.60,5243.3579604,N,00719.1710070,W,4,13,1.0,60.421,M,56.132,M,0.2,0000*65$GPGGA,181019.60,5243.3579604,N,00719.1710070,W,4,13,1.0,60.421,M,56.132,M,0.2,0000*65,,,,613494.9360208998,5842740.974629484,4,15
$GPRMC,181020.00,A,5243.3579595,N,00719.1710068,W,0.05,314.33,220422,0.0,E,R,V*44$GPGGA,181020.00,5243.3579595,N,00719.1710068,W,4,13,1.0,60.418,M,56.132,M,-0.0,0000*4E$GPGGA,181020.00,5243.3579595,N,00719.1710068,W,4,13,1.0,60.418,M,56.132,M,-0.0,0000*4E,,,,613494.9362849541,5842740.972966381,4,16
$GPRMC,181020.40,A,5243.3579591,N,00719.1710070,W,0.04,314.33,220422,0.0,E,R,V*4C$GPGGA,181020.40,5243.3579591,N,00719.1710070,W,4,13,1.0,60.422,M,56.132,M,0.2,0000*61$GPGGA,181020.40,5243.3579591,N,00719.1710070,W,4,13,1.0,60.422,M,56.132,M,0.2,0000*61,,,,613494.9360771577,5842740.972219635,4,17
$GPRMC,181020.80,A,5243.3579584,N,00719.1710078,W,0.03,314.33,220422,0.0,E,R,V*4B$GPGGA,181020.80,5243.3579584,N,00719.1710078,W,4,13,1.0,60.420,M,56.132,M,0.2,0000*63$GPGGA,181020.80,5243.3579584,N,00719.1710078,W,4,13,1.0,60.420,M,56.132,M,0.2,0000*63,,,,613494.9352070246,5842740.970901004,4,18
$GPRMC,181021.20,A,5243.3579585,N,00719.1710073,W,0.06,314.33,220422,0.0,E,R,V*4F$GPGGA,181021.20,5243.3579585,N,00719.1710073,W,4,13,1.0,60.419,M,56.132,M,0.2,0000*68$GPGGA,181021.20,5243.3579585,N,00719.1710073,W,4,13,1.0,60.419,M,56.132,M,0.2,0000*68,,,,613494.9357654632,5842740.971099514,4,19
$GPRMC,181021.60,A,5243.3579608,N,00719.1710081,W,0.06,314.33,220422,0.0,E,R,V*40$GPGGA,181021.60,5243.3579608,N,00719.1710081,W,4,13,1.0,60.422,M,56.132,M,0.2,0000*6F$GPGGA,181021.60,5243.3579608,N,00719.1710081,W,4,13,1.0,60.422,M,56.132,M,0.2,0000*6F,,,,613494.9347655042,5842740.975342073,4,20
$GPRMC,181022.00,A,5243.3579582,N,00719.1710077,W,0.08,314.33,220422,0.0,E,R,V*43$GPGGA,181022.00,5243.3579582,N,00719.1710077,W,4,13,1.0,60.420,M,56.132,M,0.2,0000*60$GPGGA,181022.00,5243.3579582,N,00719.1710077,W,4,13,1.0,60.420,M,56.132,M,0.2,0000*60,,,,613494.9353282328,5842740.970532886,4,21
$GPRMC,181022.40,A,5243.3579598,N,00719.1710076,W,0.02,314.33,220422,0.0,E,R,V*47$GPGGA,181022.40,5243.3579598,N,00719.1710076,W,4,13,1.0,60.418,M,56.132,M,0.2,0000*65$GPGGA,181022.40,5243.3579598,N,00719.1710076,W,4,13,1.0,60.418,M,56.132,M,0.2,0000*65,,,,613494.9353715456,5842740.973501481,4,22
$GPRMC,181022.80,A,5243.3579596,N,00719.1710067,W,0.03,314.33,220422,0.0,E,R,V*44$GPGGA,181022.80,5243.3579596,N,00719.1710067,W,4,13,1.0,60.421,M,56.132,M,0.2,0000*6D$GPGGA,181022.80,5243.3579596,N,00719.1710067,W,4,13,1.0,60.421,M,56.132,M,0.2,0000*6D,,,,613494.9363931797,5842740.973154383,4,23
$GPRMC,181023.20,A,5243.3579600,N,00719.1710061,W,0.06,314.33,220422,0.0,E,R,V*40$GPGGA,181023.20,5243.3579600,N,00719.1710061,W,4,13,1.0,60.422,M,56.132,M,0.2,0000*6F$GPGGA,181023.20,5243.3579600,N,00719.1710061,W,4,13,1.0,60.422,M,56.132,M,0.2,0000*6F,,,,613494.9370511891,5842740.973911641,4,24
$GPRMC,181023.60,A,5243.3579592,N,00719.1710064,W,0.06,314.33,220422,0.0,E,R,V*49$GPGGA,181023.60,5243.3579592,N,00719.1710064,W,4,13,1.0,60.420,M,56.132,M,0.2,0000*64$GPGGA,181023.60,5243.3579592,N,00719.1710064,W,4,13,1.0,60.420,M,56.132,M,0.2,0000*64,,,,613494.9367481496,5842740.972420773,4,25
$GPRMC,181024.00,A,5243.3579588,N,00719.1710065,W,0.04,314.33,220422,0.0,E,R,V*40$GPGGA,181024.00,5243.3579588,N,00719.1710065,W,4,13,1.0,60.421,M,56.132,M,-0.0,0000*41$GPGGA,181024.00,5243.3579588,N,00719.1710065,W,4,13,1.0,60.421,M,56.132,M,-0.0,0000*41,,,,613494.9366529064,5842740.971676653,4,26
$GPRMC,181024.40,A,5243.3579588,N,00719.1710067,W,0.05,314.33,220422,0.0,E,R,V*47$GPGGA,181024.40,5243.3579588,N,00719.1710067,W,4,13,1.0,60.420,M,56.132,M,0.2,0000*69$GPGGA,181024.40,5243.3579588,N,00719.1710067,W,4,13,1.0,60.420,M,56.132,M,0.2,0000*69,,,,613494.9364278,5842740.971671399,4,27
$GPRMC,181024.80,A,5243.3579592,N,00719.1710070,W,0.06,314.33,220422,0.0,E,R,V*45$GPGGA,181024.80,5243.3579592,N,00719.1710070,W,4,13,1.0,60.422,M,56.132,M,0.2,0000*6A$GPGGA,181024.80,5243.3579592,N,00719.1710070,W,4,13,1.0,60.422,M,56.132,M,0.2,0000*6A,,,,613494.9360728302,5842740.972405007,4,28
$GPRMC,181025.20,A,5243.3579587,N,00719.1710077,W,0.04,314.33,220422,0.0,E,R,V*4F$GPGGA,181025.20,5243.3579587,N,00719.1710077,W,4,13,1.0,60.424,M,56.132,M,0.2,0000*64$GPGGA,181025.20,5243.3579587,N,00719.1710077,W,4,13,1.0,60.424,M,56.132,M,0.2,0000*64,,,,613494.9353065952,5842740.97145975,4,29
$GPRMC,181025.60,A,5243.3579597,N,00719.1710073,W,0.02,314.33,220422,0.0,E,R,V*48$GPGGA,181025.60,5243.3579597,N,00719.1710073,W,4,13,1.0,60.422,M,56.132,M,0.2,0000*63$GPGGA,181025.60,5243.3579597,N,00719.1710073,W,4,13,1.0,60.422,M,56.132,M,0.2,0000*63,,,,613494.9357135328,5842740.97332399,4,30
$GPRMC,181026.00,A,5243.3579599,N,00719.1710057,W,0.03,314.33,220422,0.0,E,R,V*44$GPGGA,181026.00,5243.3579599,N,00719.1710057,W,4,13,1.0,60.417,M,56.132,M,0.2,0000*68$GPGGA,181026.00,5243.3579599,N,00719.1710057,W,4,13,1.0,60.417,M,56.132,M,0.2,0000*68,,,,613494.9375057295,5842740.973736778,4,31
$GPRMC,181026.40,A,5243.3579607,N,00719.1710076,W,0.04,314.33,220422,0.0,E,R,V*40$GPGGA,181026.40,5243.3579607,N,00719.1710076,W,4,13,1.0,60.415,M,56.132,M,0.2,0000*69$GPGGA,181026.40,5243.3579607,N,00719.1710076,W,4,13,1.0,60.415,M,56.132,M,0.2,0000*69,,,,613494.9353325979,5842740.975169838,4,32
$GPRMC,181026.80,A,5243.3579596,N,00719.1710087,W,0.04,314.33,220422,0.0,E,R,V*49$GPGGA,181026.80,5243.3579596,N,00719.1710087,W,4,13,1.0,60.420,M,56.132,M,0.2,0000*66$GPGGA,181026.80,5243.3579596,N,00719.1710087,W,4,13,1.0,60.420,M,56.132,M,0.2,0000*66,,,,613494.9341421151,5842740.973101832,4,33
$GPRMC,181027.20,A,5243.3579606,N,00719.1710082,W,0.06,314.33,220422,0.0,E,R,V*4F$GPGGA,181027.20,5243.3579606,N,00719.1710082,W,4,13,1.0,60.421,M,56.132,M,0.2,0000*63$GPGGA,181027.20,5243.3579606,N,00719.1710082,W,4,13,1.0,60.421,M,56.132,M,0.2,0000*63,,,,613494.9346616062,5842740.974968701,4,34
$GPRMC,181027.60,A,5243.3579597,N,00719.1710083,W,0.04,314.33,220422,0.0,E,R,V*43$GPGGA,181027.60,5243.3579597,N,00719.1710083,W,4,13,1.0,60.416,M,56.132,M,0.2,0000*69$GPGGA,181027.60,5243.3579597,N,00719.1710083,W,4,13,1.0,60.416,M,56.132,M,0.2,0000*69,,,,613494.9345880004,5842740.973297714,4,35
$GPRMC,181028.00,A,5243.3579606,N,00719.1710079,W,0.03,314.33,220422,0.0,E,R,V*43$GPGGA,181028.00,5243.3579606,N,00719.1710079,W,4,13,1.0,60.415,M,56.132,M,0.2,0000*6D$GPGGA,181028.00,5243.3579606,N,00719.1710079,W,4,13,1.0,60.415,M,56.132,M,0.2,0000*6D,,,,613494.9349992658,5842740.974976582,4,36
$GPRMC,181028.40,A,5243.3579590,N,00719.1710067,W,0.06,314.33,220422,0.0,E,R,V*41$GPGGA,181028.40,5243.3579590,N,00719.1710067,W,4,13,1.0,60.425,M,56.132,M,-0.0,0000*46$GPGGA,181028.40,5243.3579590,N,00719.1710067,W,4,13,1.0,60.425,M,56.132,M,-0.0,0000*46,,,,613494.9364191449,5842740.972042144,4,37
$GPRMC,181028.80,A,5243.3579596,N,00719.1710073,W,0.04,314.33,220422,0.0,E,R,V*4C$GPGGA,181028.80,5243.3579596,N,00719.1710073,W,4,13,1.0,60.420,M,56.132,M,0.2,0000*63$GPGGA,181028.80,5243.3579596,N,00719.1710073,W,4,13,1.0,60.420,M,56.132,M,0.2,0000*63,,,,613494.9357178604,5842740.973138618,4,38
$GPRMC,181029.20,A,5243.3579597,N,00719.1710078,W,0.02,314.33,220422,0.0,E,R,V*4B$GPGGA,181029.20,5243.3579597,N,00719.1710078,W,4,13,1.0,60.419,M,56.132,M,0.2,0000*68$GPGGA,181029.20,5243.3579597,N,00719.1710078,W,4,13,1.0,60.419,M,56.132,M,0.2,0000*68,,,,613494.9351507667,5842740.973310852,4,39
$GPRMC,181029.60,A,5243.3579603,N,00719.1710073,W,0.02,314.33,220422,0.0,E,R,V*4A$GPGGA,181029.60,5243.3579603,N,00719.1710073,W,4,13,1.0,60.422,M,56.132,M,-0.0,0000*4E$GPGGA,181029.60,5243.3579603,N,00719.1710073,W,4,13,1.0,60.422,M,56.132,M,-0.0,0000*4E,,,,613494.9356875677,5842740.974436228,4,40
$GPRMC,181030.00,A,5243.3579591,N,00719.1710075,W,0.04,314.33,220422,0.0,E,R,V*4C$GPGGA,181030.00,5243.3579591,N,00719.1710075,W,4,13,1.0,60.420,M,56.132,M,0.2,0000*63$GPGGA,181030.00,5243.3579591,N,00719.1710075,W,4,13,1.0,60.420,M,56.132,M,0.2,0000*63,,,,613494.9355143915,5842740.972206497,4,41
$GPRMC,181030.40,A,5243.3579598,N,00719.1710068,W,0.02,314.33,220422,0.0,E,R,V*4B$GPGGA,181030.40,5243.3579598,N,00719.1710068,W,4,13,1.0,60.422,M,56.132,M,0.2,0000*60$GPGGA,181030.40,5243.3579598,N,00719.1710068,W,4,13,1.0,60.422,M,56.132,M,0.2,0000*60,,,,613494.9362719714,5842740.973522501,4,42
$GPRMC,181030.80,A,5243.3579595,N,00719.1710077,W,0.01,314.33,220422,0.0,E,R,V*47$GPGGA,181030.80,5243.3579595,N,00719.1710077,W,4,13,1.0,60.422,M,56.132,M,0.2,0000*6F$GPGGA,181030.80,5243.3579595,N,00719.1710077,W,4,13,1.0,60.422,M,56.132,M,0.2,0000*6F,,,,613494.935271975,5842740.972942734,4,43
$GPRMC,181031.20,A,5243.3579591,N,00719.1710072,W,0.03,314.33,220422,0.0,E,R,V*4F$GPGGA,181031.20,5243.3579591,N,00719.1710072,W,4,13,1.0,60.420,M,56.132,M,0.2,0000*67$GPGGA,181031.20,5243.3579591,N,00719.1710072,W,4,13,1.0,60.420,M,56.132,M,0.2,0000*67,,,,613494.9358520512,5842740.972214378,4,44
$GPRMC,181031.60,A,5243.3579591,N,00719.1710065,W,0.06,314.33,220422,0.0,E,R,V*48$GPGGA,181031.60,5243.3579591,N,00719.1710065,W,4,13,1.0,60.420,M,56.132,M,0.2,0000*65$GPGGA,181031.60,5243.3579591,N,00719.1710065,W,4,13,1.0,60.420,M,56.132,M,0.2,0000*65,,,,613494.9366399238,5842740.972232772,4,45
$GPRMC,181032.00,A,5243.3579581,N,00719.1710098,W,0.06,314.33,220422,0.0,E,R,V*4E$GPGGA,181032.00,5243.3579581,N,00719.1710098,W,4,13,1.0,60.425,M,56.132,M,0.2,0000*66$GPGGA,181032.00,5243.3579581,N,00719.1710098,W,4,13,1.0,60.425,M,56.132,M,0.2,0000*66,,,,613494.9329689424,5842740.9702923335,4,46
$GPRMC,181032.40,A,5243.3579595,N,00719.1710063,W,0.03,314.33,220422,0.0,E,R,V*4E$GPGGA,181032.40,5243.3579595,N,00719.1710063,W,4,13,1.0,60.422,M,56.132,M,0.2,0000*64$GPGGA,181032.40,5243.3579595,N,00719.1710063,W,4,13,1.0,60.422,M,56.132,M,0.2,0000*64,,,,613494.9368477202,5842740.97297952,4,47
$GPRMC,181032.80,A,5243.3579582,N,00719.1710070,W,0.07,314.33,220422,0.0,E,R,V*42$GPGGA,181032.80,5243.3579582,N,00719.1710070,W,4,13,1.0,60.427,M,56.132,M,0.2,0000*69$GPGGA,181032.80,5243.3579582,N,00719.1710070,W,4,13,1.0,60.427,M,56.132,M,0.2,0000*69,,,,613494.9361161054,5842740.970551277,4,48
$GPRMC,181033.20,A,5243.3579587,N,00719.1710084,W,0.04,314.33,220422,0.0,E,R,V*44$GPGGA,181033.20,5243.3579587,N,00719.1710084,W,4,13,1.0,60.426,M,56.132,M,0.2,0000*6D$GPGGA,181033.20,5243.3579587,N,00719.1710084,W,4,13,1.0,60.426,M,56.132,M,0.2,0000*6D,,,,613494.9345187225,5842740.971441357,4,49
$GPRMC,181033.60,A,5243.3579586,N,00719.1710064,W,0.02,314.33,220422,0.0,E,R,V*49$GPGGA,181033.60,5243.3579586,N,00719.1710064,W,4,13,1.0,60.426,M,56.132,M,0.2,0000*66$GPGGA,181033.60,5243.3579586,N,00719.1710064,W,4,13,1.0,60.426,M,56.132,M,0.2,0000*66,,,,613494.9367741147,5842740.971308533,4,50
$GPRMC,181034.00,A,5243.3579596,N,00719.1710072,W,0.03,314.33,220422,0.0,E,R,V*4F$GPGGA,181034.00,5243.3579596,N,00719.1710072,W,4,13,1.0,60.427,M,56.132,M,-0.0,0000*4F$GPGGA,181034.00,5243.3579596,N,00719.1710072,W,4,13,1.0,60.427,M,56.132,M,-0.0,0000*4F,,,,613494.9358304136,5842740.973141246,4,51
$GPRMC,181034.40,A,5243.3579588,N,00719.1710058,W,0.05,314.33,220422,0.0,E,R,V*4A$GPGGA,181034.40,5243.3579588,N,00719.1710058,W,4,13,1.0,60.425,M,56.132,M,0.2,0000*61$GPGGA,181034.40,5243.3579588,N,00719.1710058,W,4,13,1.0,60.425,M,56.132,M,0.2,0000*61,,,,613494.9374407791,5842740.971695046,4,52
$GPRMC,181034.80,A,5243.3579601,N,00719.1710065,W,0.02,314.33,220422,0.0,E,R,V*4D$GPGGA,181034.80,5243.3579601,N,00719.1710065,W,4,13,1.0,60.426,M,56.132,M,0.2,0000*62$GPGGA,181034.80,5243.3579601,N,00719.1710065,W,4,13,1.0,60.426,M,56.132,M,0.2,0000*62,,,,613494.9365966487,5842740.9740865035,4,53
$GPRMC,181035.20,A,5243.3579587,N,00719.1710072,W,0.03,314.33,220422,0.0,E,R,V*4C$GPGGA,181035.20,5243.3579587,N,00719.1710072,W,4,13,1.0,60.424,M,56.132,M,0.2,0000*60$GPGGA,181035.20,5243.3579587,N,00719.1710072,W,4,13,1.0,60.424,M,56.132,M,0.2,0000*60,,,,613494.9358693613,5842740.971472889,4,54
$GPRMC,181035.60,A,5243.3579597,N,00719.1710071,W,0.05,314.33,220422,0.0,E,R,V*4C$GPGGA,181035.60,5243.3579597,N,00719.1710071,W,4,13,1.0,60.423,M,56.132,M,0.2,0000*61$GPGGA,181035.60,5243.3579597,N,00719.1710071,W,4,13,1.0,60.423,M,56.132,M,0.2,0000*61,,,,613494.9359386393,5842740.973329246,4,55
$GPRMC,181036.00,A,5243.3579596,N,00719.1710087,W,0.05,314.33,220422,0.0,E,R,V*41$GPGGA,181036.00,5243.3579596,N,00719.1710087,W,4,13,1.0,60.424,M,56.132,M,0.2,0000*6B$GPGGA,181036.00,5243.3579596,N,00719.1710087,W,4,13,1.0,60.424,M,56.132,M,0.2,0000*6B,,,,613494.9341421151,5842740.973101832,4,56
$GPRMC,181036.40,A,5243.3579583,N,00719.1710068,W,0.06,314.33,220422,0.0,E,R,V*43$GPGGA,181036.40,5243.3579583,N,00719.1710068,W,4,13,1.0,60.421,M,56.132,M,0.2,0000*6F$GPGGA,181036.40,5243.3579583,N,00719.1710068,W,4,13,1.0,60.421,M,56.132,M,0.2,0000*6F,,,,613494.9363368843,5842740.970741906,4,57
$GPRMC,181036.80,A,5243.3579598,N,00719.1710073,W,0.03,314.33,220422,0.0,E,R,V*4A$GPGGA,181036.80,5243.3579598,N,00719.1710073,W,4,13,1.0,60.424,M,56.132,M,0.2,0000*66$GPGGA,181036.80,5243.3579598,N,00719.1710073,W,4,13,1.0,60.424,M,56.132,M,0.2,0000*66,,,,613494.9357092053,5842740.973509363,4,58
$GPRMC,181037.20,A,5243.3579609,N,00719.1710076,W,0.05,314.33,220422,0.0,E,R,V*49$GPGGA,181037.20,5243.3579609,N,00719.1710076,W,4,13,1.0,60.423,M,56.132,M,0.2,0000*64$GPGGA,181037.20,5243.3579609,N,00719.1710076,W,4,13,1.0,60.423,M,56.132,M,0.2,0000*64,,,,613494.9353239428,5842740.975540585,4,59
$GPRMC,181037.60,A,5243.3579588,N,00719.1710082,W,0.03,314.33,220422,0.0,E,R,V*4A$GPGGA,181037.60,5243.3579588,N,00719.1710082,W,4,13,1.0,60.426,M,56.132,M,-0.0,0000*4B$GPGGA,181037.60,5243.3579588,N,00719.1710082,W,4,13,1.0,60.426,M,56.132,M,-0.0,0000*4B,,,,613494.9347395016,5842740.971631986,4,60
$GPRMC,181038.00,A,5243.3579605,N,00719.1710067,W,0.05,314.33,220422,0.0,E,R,V*48$GPGGA,181038.00,5243.3579605,N,00719.1710067,W,4,13,1.0,60.425,M,56.132,M,0.2,0000*63$GPGGA,181038.00,5243.3579605,N,00719.1710067,W,4,13,1.0,60.425,M,56.132,M,0.2,0000*63,,,,613494.936354232,5842740.97482274,4,61
$GPRMC,181038.40,A,5243.3579601,N,00719.1710071,W,0.02,314.33,220422,0.0,E,R,V*48$GPGGA,181038.40,5243.3579601,N,00719.1710071,W,4,13,1.0,60.424,M,56.132,M,0.2,0000*65$GPGGA,181038.40,5243.3579601,N,00719.1710071,W,4,13,1.0,60.424,M,56.132,M,0.2,0000*65,,,,613494.9359213292,5842740.974070737,4,62
$GPRMC,181038.80,A,5243.3579603,N,00719.1710064,W,0.03,314.33,220422,0.0,E,R,V*43$GPGGA,181038.80,5243.3579603,N,00719.1710064,W,4,13,1.0,60.421,M,56.132,M,0.2,0000*6A$GPGGA,181038.80,5243.3579603,N,00719.1710064,W,4,13,1.0,60.421,M,56.132,M,0.2,0000*6A,,,,613494.9367005468,5842740.974459877,4,63
$GPRMC,181039.20,A,5243.3579596,N,00719.1710086,W,0.04,314.33,220422,0.0,E,R,V*4C$GPGGA,181039.20,5243.3579596,N,00719.1710086,W,4,13,1.0,60.426,M,56.132,M,0.2,0000*65$GPGGA,181039.20,5243.3579596,N,00719.1710086,W,4,13,1.0,60.426,M,56.132,M,0.2,0000*65,,,,613494.9342546684,5842740.973104458,4,64
$GPRMC,181039.60,A,5243.3579605,N,00719.1710066,W,0.03,314.33,220422,0.0,E,R,V*48$GPGGA,181039.60,5243.3579605,N,00719.1710066,W,4,13,1.0,60.423,M,56.132,M,0.2,0000*63$GPGGA,181039.60,5243.3579605,N,00719.1710066,W,4,13,1.0,60.423,M,56.132,M,0.2,0000*63,,,,613494.9364667851,5842740.974825368,4,65
$GPRMC,181040.00,A,5243.3579593,N,00719.1710068,W,0.02,314.33,220422,0.0,E,R,V*43$GPGGA,181040.00,5243.3579593,N,00719.1710068,W,4,13,1.0,60.421,M,56.132,M,0.2,0000*6B$GPGGA,181040.00,5243.3579593,N,00719.1710068,W,4,13,1.0,60.421,M,56.132,M,0.2,0000*6B,,,,613494.9362936091,5842740.972595637,4,66
$GPRMC,181040.40,A,5243.3579595,N,00719.1710055,W,0.04,314.33,220422,0.0,E,R,V*49$GPGGA,181040.40,5243.3579595,N,00719.1710055,W,4,13,1.0,60.430,M,56.132,M,0.2,0000*67$GPGGA,181040.40,5243.3579595,N,00719.1710055,W,4,13,1.0,60.430,M,56.132,M,0.2,0000*67,,,,613494.937748146,5842740.97300054,4,67
$GPRMC,181040.80,A,5243.3579604,N,00719.1710075,W,0.09,314.33,220422,0.0,E,R,V*41$GPGGA,181040.80,5243.3579604,N,00719.1710075,W,4,13,1.0,60.418,M,56.132,M,0.2,0000*68$GPGGA,181040.80,5243.3579604,N,00719.1710075,W,4,13,1.0,60.418,M,56.132,M,0.2,0000*68,,,,613494.9354581338,5842740.974616347,4,68
$GPRMC,181041.20,A,5243.3579604,N,00719.1710067,W,0.04,314.33,220422,0.0,E,R,V*44$GPGGA,181041.20,5243.3579604,N,00719.1710067,W,4,13,1.0,60.427,M,56.132,M,0.2,0000*6C$GPGGA,181041.20,5243.3579604,N,00719.1710067,W,4,13,1.0,60.427,M,56.132,M,0.2,0000*6C,,,,613494.9363585595,5842740.974637368,4,69
$GPRMC,181041.60,A,5243.3579602,N,00719.1710071,W,0.03,314.33,220422,0.0,E,R,V*46$GPGGA,181041.60,5243.3579602,N,00719.1710071,W,4,13,1.0,60.422,M,56.132,M,0.2,0000*6C$GPGGA,181041.60,5243.3579602,N,00719.1710071,W,4,13,1.0,60.422,M,56.132,M,0.2,0000*6C,,,,613494.9359170017,5842740.97425611,4,70
$GPRMC,181042.00,A,5243.3579594,N,00719.1710061,W,0.04,314.33,220422,0.0,E,R,V*49$GPGGA,181042.00,5243.3579594,N,00719.1710061,W,4,13,1.0,60.423,M,56.132,M,0.2,0000*65$GPGGA,181042.00,5243.3579594,N,00719.1710061,W,4,13,1.0,60.423,M,56.132,M,0.2,0000*65,,,,613494.9370771542,5842740.972799404,4,71
$GPRMC,181042.40,A,5243.3579596,N,00719.1710075,W,0.04,314.33,220422,0.0,E,R,V*4A$GPGGA,181042.40,5243.3579596,N,00719.1710075,W,4,13,1.0,60.422,M,56.132,M,0.2,0000*67$GPGGA,181042.40,5243.3579596,N,00719.1710075,W,4,13,1.0,60.422,M,56.132,M,0.2,0000*67,,,,613494.935492754,5842740.973133363,4,72
$GPRMC,181042.80,A,5243.3579598,N,00719.1710060,W,0.05,314.33,220422,0.0,E,R,V*4D$GPGGA,181042.80,5243.3579598,N,00719.1710060,W,4,13,1.0,60.426,M,56.132,M,-0.0,0000*4A$GPGGA,181042.80,5243.3579598,N,00719.1710060,W,4,13,1.0,60.426,M,56.132,M,-0.0,0000*4A,,,,613494.9371723973,5842740.973543523,4,73
$GPRMC,181043.20,A,5243.3579581,N,00719.1710060,W,0.07,314.33,220422,0.0,E,R,V*4C$GPGGA,181043.20,5243.3579581,N,00719.1710060,W,4,13,1.0,60.427,M,56.132,M,-0.0,0000*48$GPGGA,181043.20,5243.3579581,N,00719.1710060,W,4,13,1.0,60.427,M,56.132,M,-0.0,0000*48,,,,613494.9372459652,5842740.970392181,4,74
$GPRMC,181043.60,A,5243.3579615,N,00719.1710063,W,0.04,314.33,220422,0.0,E,R,V*46$GPGGA,181043.60,5243.3579615,N,00719.1710063,W,4,13,1.0,60.422,M,56.132,M,0.2,0000*6B$GPGGA,181043.60,5243.3579615,N,00719.1710063,W,4,13,1.0,60.422,M,56.132,M,0.2,0000*6B,,,,613494.9367611697,5842740.976686981,4,75
$GPRMC,181044.00,A,5243.3579599,N,00719.1710062,W,0.04,314.33,220422,0.0,E,R,V*41$GPGGA,181044.00,5243.3579599,N,00719.1710062,W,4,13,1.0,60.420,M,56.132,M,0.2,0000*6E$GPGGA,181044.00,5243.3579599,N,00719.1710062,W,4,13,1.0,60.420,M,56.132,M,0.2,0000*6E,,,,613494.9369429634,5842740.973723642,4,76
$GPRMC,181044.40,A,5243.3579602,N,00719.1710074,W,0.04,314.33,220422,0.0,E,R,V*43$GPGGA,181044.40,5243.3579602,N,00719.1710074,W,4,13,1.0,60.420,M,56.132,M,0.2,0000*6C$GPGGA,181044.40,5243.3579602,N,00719.1710074,W,4,13,1.0,60.420,M,56.132,M,0.2,0000*6C,,,,613494.935579342,5842740.974248228,4,77
$GPRMC,181044.80,A,5243.3579596,N,00719.1710075,W,0.05,314.33,220422,0.0,E,R,V*41$GPGGA,181044.80,5243.3579596,N,00719.1710075,W,4,13,1.0,60.424,M,56.132,M,0.2,0000*6B$GPGGA,181044.80,5243.3579596,N,00719.1710075,W,4,13,1.0,60.424,M,56.132,M,0.2,0000*6B,,,,613494.935492754,5842740.973133363,4,78
$GPRMC,181045.20,A,5243.3579612,N,00719.1710061,W,0.02,314.33,220422,0.0,E,R,V*47$GPGGA,181045.20,5243.3579612,N,00719.1710061,W,4,13,1.0,60.422,M,56.132,M,0.2,0000*6C$GPGGA,181045.20,5243.3579612,N,00719.1710061,W,4,13,1.0,60.422,M,56.132,M,0.2,0000*6C,,,,613494.9369992588,5842740.976136117,4,79
$GPRMC,181045.60,A,5243.3579604,N,00719.1710074,W,0.05,314.33,220422,0.0,E,R,V*47$GPGGA,181045.60,5243.3579604,N,00719.1710074,W,4,13,1.0,60.425,M,56.132,M,0.2,0000*6C$GPGGA,181045.60,5243.3579604,N,00719.1710074,W,4,13,1.0,60.425,M,56.132,M,0.2,0000*6C,,,,613494.9355706869,5842740.974618974,4,80
$GPRMC,181046.00,A,5243.3579587,N,00719.1710081,W,0.04,314.33,220422,0.0,E,R,V*41$GPGGA,181046.00,5243.3579587,N,00719.1710081,W,4,13,1.0,60.422,M,56.132,M,-0.0,0000*43$GPGGA,181046.00,5243.3579587,N,00719.1710081,W,4,13,1.0,60.422,M,56.132,M,-0.0,0000*43,,,,613494.9348563822,5842740.97144924,4,81
$GPRMC,181046.40,A,5243.3579609,N,00719.1710078,W,0.05,314.33,220422,0.0,E,R,V*47$GPGGA,181046.40,5243.3579609,N,00719.1710078,W,4,13,1.0,60.420,M,56.132,M,0.2,0000*69$GPGGA,181046.40,5243.3579609,N,00719.1710078,W,4,13,1.0,60.420,M,56.132,M,0.2,0000*69,,,,613494.9350988364,5842740.975535329,4,82
$GPRMC,181046.80,A,5243.3579609,N,00719.1710059,W,0.06,314.33,220422,0.0,E,R,V*4B$GPGGA,181046.80,5243.3579609,N,00719.1710059,W,4,13,1.0,60.424,M,56.132,M,0.2,0000*62$GPGGA,181046.80,5243.3579609,N,00719.1710059,W,4,13,1.0,60.424,M,56.132,M,0.2,0000*62,,,,613494.9372373478,5842740.975585253,4,83
$GPRMC,181047.20,A,5243.3579611,N,00719.1710064,W,0.05,314.33,220422,0.0,E,R,V*44$GPGGA,181047.20,5243.3579611,N,00719.1710064,W,4,13,1.0,60.422,M,56.132,M,-0.0,0000*47$GPGGA,181047.20,5243.3579611,N,00719.1710064,W,4,13,1.0,60.422,M,56.132,M,-0.0,0000*47,,,,613494.9366659266,5842740.97594286,4,84
$GPRMC,181047.60,A,5243.3579614,N,00719.1710073,W,0.07,314.33,220422,0.0,E,R,V*41$GPGGA,181047.60,5243.3579614,N,00719.1710073,W,4,13,1.0,60.415,M,56.132,M,0.2,0000*6B$GPGGA,181047.60,5243.3579614,N,00719.1710073,W,4,13,1.0,60.415,M,56.132,M,0.2,0000*6B,,,,613494.935639965,5842740.976475332,4,85
$GPRMC,181048.00,A,5243.3579599,N,00719.1710066,W,0.02,314.33,220422,0.0,E,R,V*4F$GPGGA,181048.00,5243.3579599,N,00719.1710066,W,4,13,1.0,60.419,M,56.132,M,0.2,0000*6C$GPGGA,181048.00,5243.3579599,N,00719.1710066,W,4,13,1.0,60.419,M,56.132,M,0.2,0000*6C,,,,613494.9364927503,5842740.97371313,4,86
$GPRMC,181048.40,A,5243.3579611,N,00719.1710063,W,0.03,314.33,220422,0.0,E,R,V*4C$GPGGA,181048.40,5243.3579611,N,00719.1710063,W,4,13,1.0,60.421,M,56.132,M,0.2,0000*65$GPGGA,181048.40,5243.3579611,N,00719.1710063,W,4,13,1.0,60.421,M,56.132,M,0.2,0000*65,,,,613494.9367784798,5842740.975945488,4,87
$GPRMC,181048.80,A,5243.3579603,N,00719.1710057,W,0.06,314.33,220422,0.0,E,R,V*41$GPGGA,181048.80,5243.3579603,N,00719.1710057,W,4,13,1.0,60.421,M,56.132,M,-0.0,0000*42$GPGGA,181048.80,5243.3579603,N,00719.1710057,W,4,13,1.0,60.421,M,56.132,M,-0.0,0000*42,,,,613494.9374884194,5842740.97447827,4,88
$GPRMC,181049.20,A,5243.3579604,N,00719.1710063,W,0.04,314.33,220422,0.0,E,R,V*48$GPGGA,181049.20,5243.3579604,N,00719.1710063,W,4,13,1.0,60.422,M,56.132,M,0.2,0000*65$GPGGA,181049.20,5243.3579604,N,00719.1710063,W,4,13,1.0,60.422,M,56.132,M,0.2,0000*65,,,,613494.9368087725,5842740.974647878,4,89
$GPRMC,181049.60,A,5243.3579608,N,00719.1710073,W,0.04,314.33,220422,0.0,E,R,V*41$GPGGA,181049.60,5243.3579608,N,00719.1710073,W,4,13,1.0,60.423,M,56.132,M,0.2,0000*6D$GPGGA,181049.60,5243.3579608,N,00719.1710073,W,4,13,1.0,60.423,M,56.132,M,0.2,0000*6D,,,,613494.9356659302,5842740.975363093,4,90
$GPRMC,181050.00,A,5243.3579614,N,00719.1710071,W,0.08,314.33,220422,0.0,E,R,V*4C$GPGGA,181050.00,5243.3579614,N,00719.1710071,W,4,13,1.0,60.417,M,56.132,M,0.2,0000*6B$GPGGA,181050.00,5243.3579614,N,00719.1710071,W,4,13,1.0,60.417,M,56.132,M,0.2,0000*6B,,,,613494.9358650714,5842740.976480586,4,91
$GPRMC,181050.40,A,5243.3579616,N,00719.1710050,W,0.04,314.33,220422,0.0,E,R,V*45$GPGGA,181050.40,5243.3579616,N,00719.1710050,W,4,13,1.0,60.419,M,56.132,M,-0.0,0000*4F$GPGGA,181050.40,5243.3579616,N,00719.1710050,W,4,13,1.0,60.419,M,56.132,M,-0.0,0000*4F,,,,613494.9382200342,5842740.976906511,4,92
$GPRMC,181050.80,A,5243.3579625,N,00719.1710069,W,0.03,314.33,220422,0.0,E,R,V*44$GPGGA,181050.80,5243.3579625,N,00719.1710069,W,4,13,1.0,60.419,M,56.132,M,0.2,0000*66$GPGGA,181050.80,5243.3579625,N,00719.1710069,W,4,13,1.0,60.419,M,56.132,M,0.2,0000*66,,,,613494.9360425752,5842740.978524946,4,93
$GPRMC,181051.20,A,5243.3579621,N,00719.1710068,W,0.03,314.33,220422,0.0,E,R,V*4A$GPGGA,181051.20,5243.3579621,N,00719.1710068,W,4,13,1.0,60.415,M,56.132,M,0.6,0000*60$GPGGA,181051.20,5243.3579621,N,00719.1710068,W,4,13,1.0,60.415,M,56.132,M,0.6,0000*60,,,,613494.9361724384,5842740.97778608,4,94
$GPRMC,181051.60,A,5243.3579612,N,00719.1710050,W,0.04,314.33,220422,0.0,E,R,V*42$GPGGA,181051.60,5243.3579612,N,00719.1710050,W,4,13,1.0,60.413,M,56.132,M,1.0,0000*6E$GPGGA,181051.60,5243.3579612,N,00719.1710050,W,4,13,1.0,60.413,M,56.132,M,1.0,0000*6E,,,,613494.9382373443,5842740.976165021,4,95
$GPRMC,181052.00,A,5243.3579616,N,00719.1710077,W,0.06,314.33,220422,0.0,E,R,V*44$GPGGA,181052.00,5243.3579616,N,00719.1710077,W,4,13,1.0,60.418,M,56.132,M,0.4,0000*64$GPGGA,181052.00,5243.3579616,N,00719.1710077,W,4,13,1.0,60.418,M,56.132,M,0.4,0000*64,,,,613494.935181097,5842740.9768355675,4,96
$GPRMC,181052.40,A,5243.3579616,N,00719.1710061,W,0.02,314.33,220422,0.0,E,R,V*43$GPGGA,181052.40,5243.3579616,N,00719.1710061,W,4,13,1.0,60.419,M,56.132,M,0.4,0000*66$GPGGA,181052.40,5243.3579616,N,00719.1710061,W,4,13,1.0,60.419,M,56.132,M,0.4,0000*66,,,,613494.9369819487,5842740.976877607,4,97
$GPRMC,181052.80,A,5243.3579623,N,00719.1710061,W,0.05,314.33,220422,0.0,E,R,V*4E$GPGGA,181052.80,5243.3579623,N,00719.1710061,W,4,13,1.0,60.413,M,56.132,M,0.8,0000*6A$GPGGA,181052.80,5243.3579623,N,00719.1710061,W,4,13,1.0,60.413,M,56.132,M,0.8,0000*6A,,,,613494.9369516561,5842740.978175219,4,98
$GPRMC,181053.20,A,5243.3579601,N,00719.1710053,W,0.07,314.33,220422,0.0,E,R,V*46$GPGGA,181053.20,5243.3579601,N,00719.1710053,W,4,13,1.0,60.415,M,56.132,M,1.0,0000*6F$GPGGA,181053.20,5243.3579601,N,00719.1710053,W,4,13,1.0,60.415,M,56.132,M,1.0,0000*6F,,,,613494.9379472873,5842740.974118033,4,99
$GPRMC,181053.60,A,5243.3579611,N,00719.1710064,W,0.03,314.33,220422,0.0,E,R,V*43$GPGGA,181053.60,5243.3579611,N,00719.1710064,W,4,13,1.0,60.417,M,56.132,M,0.4,0000*69$GPGGA,181053.60,5243.3579611,N,00719.1710064,W,4,13,1.0,60.417,M,56.132,M,0.4,0000*69,,,,613494.9366659266,5842740.97594286,4,100
$GPRMC,181054.00,A,5243.3579606,N,00719.1710066,W,0.04,314.33,220422,0.0,E,R,V*41$GPGGA,181054.00,5243.3579606,N,00719.1710066,W,4,13,1.0,60.417,M,56.132,M,0.8,0000*60$GPGGA,181054.00,5243.3579606,N,00719.1710066,W,4,13,1.0,60.417,M,56.132,M,0.8,0000*60,,,,613494.9364624576,5842740.975010741,4,101
$GPRMC,181054.40,A,5243.3579609,N,00719.1710063,W,0.03,314.33,220422,0.0,E,R,V*48$GPGGA,181054.40,5243.3579609,N,00719.1710063,W,4,13,1.0,60.413,M,56.132,M,1.2,0000*61$GPGGA,181054.40,5243.3579609,N,00719.1710063,W,4,13,1.0,60.413,M,56.132,M,1.2,0000*61,,,,613494.9367871349,5842740.975574743,4,102
$GPRMC,181054.80,A,5243.3579613,N,00719.1710071,W,0.01,314.33,220422,0.0,E,R,V*4E$GPGGA,181054.80,5243.3579613,N,00719.1710071,W,4,13,1.0,60.413,M,56.132,M,1.4,0000*63$GPGGA,181054.80,5243.3579613,N,00719.1710071,W,4,13,1.0,60.413,M,56.132,M,1.4,0000*63,,,,613494.9358693989,5842740.976295215,4,103
$GPRMC,181055.20,A,5243.3579609,N,00719.1710074,W,0.02,314.33,220422,0.0,E,R,V*48$GPGGA,181055.20,5243.3579609,N,00719.1710074,W,4,13,1.0,60.416,M,56.132,M,0.4,0000*62$GPGGA,181055.20,5243.3579609,N,00719.1710074,W,4,13,1.0,60.416,M,56.132,M,0.4,0000*62,,,,613494.9355490494,5842740.97554584,4,104
$GPRMC,181055.60,A,5243.3579608,N,00719.1710070,W,0.06,314.33,220422,0.0,E,R,V*4D$GPGGA,181055.60,5243.3579608,N,00719.1710070,W,4,13,1.0,60.413,M,56.132,M,0.8,0000*6A$GPGGA,181055.60,5243.3579608,N,00719.1710070,W,4,13,1.0,60.413,M,56.132,M,0.8,0000*6A,,,,613494.9360035898,5842740.975370977,4,105
$GPRMC,181056.00,A,5243.3579615,N,00719.1710068,W,0.04,314.33,220422,0.0,E,R,V*4F$GPGGA,181056.00,5243.3579615,N,00719.1710068,W,4,13,1.0,60.410,M,56.132,M,1.2,0000*62$GPGGA,181056.00,5243.3579615,N,00719.1710068,W,4,13,1.0,60.410,M,56.132,M,1.2,0000*62,,,,613494.9361984036,5842740.976673842,4,106
$GPRMC,181056.40,A,5243.3579607,N,00719.1710062,W,0.02,314.33,220422,0.0,E,R,V*44$GPGGA,181056.40,5243.3579607,N,00719.1710062,W,4,13,1.0,60.414,M,56.132,M,1.4,0000*6D$GPGGA,181056.40,5243.3579607,N,00719.1710062,W,4,13,1.0,60.414,M,56.132,M,1.4,0000*6D,,,,613494.9369083432,5842740.975206625,4,107
$GPRMC,181056.80,A,5243.3579604,N,00719.1710063,W,0.07,314.33,220422,0.0,E,R,V*4F$GPGGA,181056.80,5243.3579604,N,00719.1710063,W,4,13,1.0,60.421,M,56.132,M,0.4,0000*64$GPGGA,181056.80,5243.3579604,N,00719.1710063,W,4,13,1.0,60.421,M,56.132,M,0.4,0000*64,,,,613494.9368087725,5842740.974647878,4,108
$GPRMC,181057.20,A,5243.3579613,N,00719.1710075,W,0.01,314.33,220422,0.0,E,R,V*43$GPGGA,181057.20,5243.3579613,N,00719.1710075,W,4,13,1.0,60.424,M,56.132,M,0.4,0000*6B$GPGGA,181057.20,5243.3579613,N,00719.1710075,W,4,13,1.0,60.424,M,56.132,M,0.4,0000*6B,,,,613494.9354191861,5842740.976284705,4,109
$GPRMC,181057.60,A,5243.3579609,N,00719.1710063,W,0.03,314.33,220422,0.0,E,R,V*49$GPGGA,181057.60,5243.3579609,N,00719.1710063,W,4,13,1.0,60.421,M,56.132,M,0.8,0000*6A$GPGGA,181057.60,5243.3579609,N,00719.1710063,W,4,13,1.0,60.421,M,56.132,M,0.8,0000*6A,,,,613494.9367871349,5842740.975574743,4,110
$GPRMC,181058.00,A,5243.3579612,N,00719.1710071,W,0.02,314.33,220422,0.0,E,R,V*48$GPGGA,181058.00,5243.3579612,N,00719.1710071,W,4,13,1.0,60.418,M,56.132,M,1.2,0000*6B$GPGGA,181058.00,5243.3579612,N,00719.1710071,W,4,13,1.0,60.418,M,56.132,M,1.2,0000*6B,,,,613494.9358737264,5842740.976109842,4,111
$GPRMC,181058.40,A,5243.3579625,N,00719.1710063,W,0.03,314.33,220422,0.0,E,R,V*4A$GPGGA,181058.40,5243.3579625,N,00719.1710063,W,4,13,1.0,60.415,M,56.132,M,0.2,0000*64$GPGGA,181058.40,5243.3579625,N,00719.1710063,W,4,13,1.0,60.415,M,56.132,M,0.2,0000*64,,,,613494.9367178945,5842740.978540711,4,112
$GPRMC,181058.80,A,5243.3579621,N,00719.1710057,W,0.03,314.33,220422,0.0,E,R,V*45$GPGGA,181058.80,5243.3579621,N,00719.1710057,W,4,13,1.0,60.417,M,56.132,M,0.6,0000*6D$GPGGA,181058.80,5243.3579621,N,00719.1710057,W,4,13,1.0,60.417,M,56.132,M,0.6,0000*6D,,,,613494.9374105239,5842740.977814984,4,113
$GPRMC,181059.20,A,5243.3579630,N,00719.1710069,W,0.05,314.33,220422,0.0,E,R,V*45$GPGGA,181059.20,5243.3579630,N,00719.1710069,W,4,13,1.0,60.415,M,56.132,M,1.0,0000*6E$GPGGA,181059.20,5243.3579630,N,00719.1710069,W,4,13,1.0,60.415,M,56.132,M,1.0,0000*6E,,,,613494.9360209375,5842740.979451812,4,114
$GPRMC,181059.60,A,5243.3579619,N,00719.1710063,W,0.06,314.33,220422,0.0,E,R,V*43$GPGGA,181059.60,5243.3579619,N,00719.1710063,W,4,13,1.0,60.414,M,56.132,M,0.8,0000*63$GPGGA,181059.60,5243.3579619,N,00719.1710063,W,4,13,1.0,60.414,M,56.132,M,0.8,0000*63,,,,613494.9367438597,5842740.9774284735,4,115
$GPRMC,181100.00,A,5243.3579617,N,00719.1710067,W,0.03,314.33,220422,0.0,E,R,V*47$GPGGA,181100.00,5243.3579617,N,00719.1710067,W,4,13,1.0,60.419,M,56.132,M,0.2,0000*65$GPGGA,181100.00,5243.3579617,N,00719.1710067,W,4,13,1.0,60.419,M,56.132,M,0.2,0000*65,,,,613494.9363023017,5842740.977047215,4,116
$GPRMC,181100.40,A,5243.3579619,N,00719.1710074,W,0.03,314.33,220422,0.0,E,R,V*4F$GPGGA,181100.40,5243.3579619,N,00719.1710074,W,4,13,1.0,60.417,M,56.132,M,0.2,0000*63$GPGGA,181100.40,5243.3579619,N,00719.1710074,W,4,13,1.0,60.417,M,56.132,M,0.2,0000*63,,,,613494.9355057741,5842740.97739957,4,117
$GPRMC,181100.80,A,5243.3579593,N,00719.1710050,W,0.07,314.33,220422,0.0,E,R,V*40$GPGGA,181100.80,5243.3579593,N,00719.1710050,W,4,13,1.0,60.423,M,56.132,M,0.2,0000*6F$GPGGA,181100.80,5243.3579593,N,00719.1710050,W,4,13,1.0,60.423,M,56.132,M,0.2,0000*6F,,,,613494.9383195672,5842740.972642932,4,118
$GPRMC,181101.20,A,5243.3579604,N,00719.1710052,W,0.05,314.33,220422,0.0,E,R,V*46$GPGGA,181101.20,5243.3579604,N,00719.1710052,W,4,13,1.0,60.419,M,56.132,M,-0.0,0000*4D$GPGGA,181101.20,5243.3579604,N,00719.1710052,W,4,13,1.0,60.419,M,56.132,M,-0.0,0000*4D,,,,613494.9380468581,5842740.97467678,4,119
$GPRMC,181101.60,A,5243.3579626,N,00719.1710060,W,0.04,314.33,220422,0.0,E,R,V*42$GPGGA,181101.60,5243.3579626,N,00719.1710060,W,4,13,1.0,60.420,M,56.132,M,0.2,0000*6D$GPGGA,181101.60,5243.3579626,N,00719.1710060,W,4,13,1.0,60.420,M,56.132,M,0.2,0000*6D,,,,613494.9370512267,5842740.978733966,4,120
$GPRMC,181102.00,A,5243.3579606,N,00719.1710068,W,0.02,314.33,220422,0.0,E,R,V*4B$GPGGA,181102.00,5243.3579606,N,00719.1710068,W,4,13,1.0,60.422,M,56.132,M,0.2,0000*60$GPGGA,181102.00,5243.3579606,N,00719.1710068,W,4,13,1.0,60.422,M,56.132,M,0.2,0000*60,,,,613494.9362373513,5842740.975005487,4,121
$GPRMC,181102.40,A,5243.3579613,N,00719.1710062,W,0.04,314.33,220422,0.0,E,R,V*47$GPGGA,181102.40,5243.3579613,N,00719.1710062,W,4,13,1.0,60.420,M,56.132,M,0.2,0000*68$GPGGA,181102.40,5243.3579613,N,00719.1710062,W,4,13,1.0,60.420,M,56.132,M,0.2,0000*68,,,,613494.9368823781,5842740.976318864,4,122
$GPRMC,181102.80,A,5243.3579609,N,00719.1710050,W,0.03,314.33,220422,0.0,E,R,V*46$GPGGA,181102.80,5243.3579609,N,00719.1710050,W,4,13,1.0,60.421,M,56.132,M,-0.0,0000*40$GPGGA,181102.80,5243.3579609,N,00719.1710050,W,4,13,1.0,60.421,M,56.132,M,-0.0,0000*40,,,,613494.9382503269,5842740.975608901,4,123
$GPRMC,181103.20,A,5243.3579596,N,00719.1710071,W,0.05,314.33,220422,0.0,E,R,V*4D$GPGGA,181103.20,5243.3579596,N,00719.1710071,W,4,13,1.0,60.421,M,56.132,M,0.2,0000*62$GPGGA,181103.20,5243.3579596,N,00719.1710071,W,4,13,1.0,60.421,M,56.132,M,0.2,0000*62,,,,613494.9359429668,5842740.973143872,4,124
$GPRMC,181103.60,A,5243.3579618,N,00719.1710068,W,0.05,314.33,220422,0.0,E,R,V*44$GPGGA,181103.60,5243.3579618,N,00719.1710068,W,4,13,1.0,60.420,M,56.132,M,0.2,0000*6A$GPGGA,181103.60,5243.3579618,N,00719.1710068,W,4,13,1.0,60.420,M,56.132,M,0.2,0000*6A,,,,613494.936185421,5842740.977229963,4,125
$GPRMC,181104.00,A,5243.3579619,N,00719.1710065,W,0.05,314.33,220422,0.0,E,R,V*49$GPGGA,181104.00,5243.3579619,N,00719.1710065,W,4,13,1.0,60.423,M,56.132,M,0.2,0000*64$GPGGA,181104.00,5243.3579619,N,00719.1710065,W,4,13,1.0,60.423,M,56.132,M,0.2,0000*64,,,,613494.9365187532,5842740.977423218,4,126
$GPRMC,181104.40,A,5243.3579617,N,00719.1710054,W,0.04,314.33,220422,0.0,E,R,V*40$GPGGA,181104.40,5243.3579617,N,00719.1710054,W,4,13,1.0,60.419,M,56.132,M,0.2,0000*65$GPGGA,181104.40,5243.3579617,N,00719.1710054,W,4,13,1.0,60.419,M,56.132,M,0.2,0000*65,,,,613494.9377654939,5842740.977081374,4,127
$GPRMC,181104.80,A,5243.3579613,N,00719.1710060,W,0.09,314.33,220422,0.0,E,R,V*42$GPGGA,181104.80,5243.3579613,N,00719.1710060,W,4,13,1.0,60.421,M,56.132,M,0.2,0000*61$GPGGA,181104.80,5243.3579613,N,00719.1710060,W,4,13,1.0,60.421,M,56.132,M,0.2,0000*61,,,,613494.9371074844,5842740.976324118,4,128
$GPRMC,181105.20,A,5243.3579600,N,00719.1710050,W,0.04,314.33,220422,0.0,E,R,V*45$GPGGA,181105.20,5243.3579600,N,00719.1710050,W,4,13,1.0,60.422,M,56.132,M,-0.0,0000*47$GPGGA,181105.20,5243.3579600,N,00719.1710050,W,4,13,1.0,60.422,M,56.132,M,-0.0,0000*47,,,,613494.9382892746,5842740.973940544,4,129
$GPRMC,181105.60,A,5243.3579616,N,00719.1710056,W,0.04,314.33,220422,0.0,E,R,V*40$GPGGA,181105.60,5243.3579616,N,00719.1710056,W,4,13,1.0,60.424,M,56.132,M,0.2,0000*6B$GPGGA,181105.60,5243.3579616,N,00719.1710056,W,4,13,1.0,60.424,M,56.132,M,0.2,0000*6B,,,,613494.9375447149,5842740.9768907465,4,130
$GPRMC,181106.00,A,5243.3579615,N,00719.1710064,W,0.02,314.33,220422,0.0,E,R,V*41$GPGGA,181106.00,5243.3579615,N,00719.1710064,W,4,13,1.0,60.421,M,56.132,M,0.2,0000*69$GPGGA,181106.00,5243.3579615,N,00719.1710064,W,4,13,1.0,60.421,M,56.132,M,0.2,0000*69,,,,613494.9366486166,5842740.976684353,4,131
$GPRMC,181106.40,A,5243.3579632,N,00719.1710054,W,0.06,314.33,220422,0.0,E,R,V*47$GPGGA,181106.40,5243.3579632,N,00719.1710054,W,4,13,1.0,60.419,M,56.132,M,0.2,0000*60$GPGGA,181106.40,5243.3579632,N,00719.1710054,W,4,13,1.0,60.419,M,56.132,M,0.2,0000*60,,,,613494.9377005809,5842740.97986197,4,132
$GPRMC,181106.80,A,5243.3579606,N,00719.1710049,W,0.10,314.33,220422,0.0,E,R,V*47$GPGGA,181106.80,5243.3579606,N,00719.1710049,W,4,13,1.0,60.428,M,56.132,M,0.2,0000*65$GPGGA,181106.80,5243.3579606,N,00719.1710049,W,4,13,1.0,60.428,M,56.132,M,0.2,0000*65,,,,613494.9383758627,5842740.97505541,4,133
$GPRMC,181107.20,A,5243.3578836,N,00719.1709567,W,1.79,314.33,220422,0.0,E,R,V*4F$GPGGA,181107.20,5243.3578836,N,00719.1709567,W,4,13,1.0,60.434,M,56.132,M,-0.0,0000*41$GPGGA,181107.20,5243.3578836,N,00719.1709567,W,4,13,1.0,60.434,M,56.132,M,-0.0,0000*41,,,,613494.9959587138,5842740.833584654,4,134
$GPRMC,181107.60,A,5243.3577380,N,00719.1708761,W,1.47,314.33,220422,0.0,E,R,V*4A$GPGGA,181107.60,5243.3577380,N,00719.1708761,W,4,13,1.0,60.444,M,56.132,M,0.2,0000*61$GPGGA,181107.60,5243.3577380,N,00719.1708761,W,4,13,1.0,60.444,M,56.132,M,0.2,0000*61,,,,613495.0929775013,5842740.565799328,4,135
$GPRMC,181108.00,A,5243.3576488,N,00719.1708324,W,0.93,314.33,220422,0.0,E,R,V*40$GPGGA,181108.00,5243.3576488,N,00719.1708324,W,4,13,1.0,60.428,M,56.132,M,0.2,0000*69$GPGGA,181108.00,5243.3576488,N,00719.1708324,W,4,13,1.0,60.428,M,56.132,M,0.2,0000*69,,,,613495.1460234239,5842740.401594825,4,136
$GPRMC,181108.40,A,5243.3575978,N,00719.1708022,W,0.89,314.33,220422,0.0,E,R,V*4B$GPGGA,181108.40,5243.3575978,N,00719.1708022,W,4,13,1.0,60.426,M,56.132,M,0.2,0000*67$GPGGA,181108.40,5243.3575978,N,00719.1708022,W,4,13,1.0,60.426,M,56.132,M,0.2,0000*67,,,,613495.1822215444,5842740.3078481,4,137
$GPRMC,181108.80,A,5243.3576337,N,00719.1708143,W,0.36,314.33,220422,0.0,E,R,V*47$GPGGA,181108.80,5243.3576337,N,00719.1708143,W,4,13,1.0,60.430,M,56.132,M,0.2,0000*68$GPGGA,181108.80,5243.3576337,N,00719.1708143,W,4,13,1.0,60.430,M,56.132,M,0.2,0000*68,,,,613495.1670490183,5842740.374079085,4,138
$GPRMC,181109.20,A,5243.3576348,N,00719.1708149,W,0.34,314.33,220422,0.0,E,R,V*4C$GPGGA,181109.20,5243.3576348,N,00719.1708149,W,4,13,1.0,60.432,M,56.132,M,0.2,0000*63$GPGGA,181109.20,5243.3576348,N,00719.1708149,W,4,13,1.0,60.432,M,56.132,M,0.2,0000*63,,,,613495.1663260959,5842740.376102421,4,139
$GPRMC,181109.60,A,5243.3576325,N,00719.1708123,W,0.10,314.33,220422,0.0,E,R,V*49$GPGGA,181109.60,5243.3576325,N,00719.1708123,W,4,13,1.0,60.428,M,56.132,M,0.2,0000*6B$GPGGA,181109.60,5243.3576325,N,00719.1708123,W,4,13,1.0,60.428,M,56.132,M,0.2,0000*6B,,,,613495.1693520134,5842740.371907161,4,140
$GPRMC,181110.00,A,5243.3576324,N,00719.1708127,W,0.09,314.33,220422,0.0,E,R,V*4A$GPGGA,181110.00,5243.3576324,N,00719.1708127,W,4,13,1.0,60.433,M,56.132,M,0.2,0000*6A$GPGGA,181110.00,5243.3576324,N,00719.1708127,W,4,13,1.0,60.433,M,56.132,M,0.2,0000*6A,,,,613495.1689061279,5842740.371711275,4,141
$GPRMC,181110.40,A,5243.3576340,N,00719.1708138,W,0.09,314.33,220422,0.0,E,R,V*42$GPGGA,181110.40,5243.3576340,N,00719.1708138,W,4,13,1.0,60.437,M,56.132,M,0.2,0000*66$GPGGA,181110.40,5243.3576340,N,00719.1708138,W,4,13,1.0,60.437,M,56.132,M,0.2,0000*66,,,,613495.1675988018,5842740.374648343,4,142
$GPRMC,181110.80,A,5243.3576339,N,00719.1708135,W,0.09,314.33,220422,0.0,E,R,V*4D$GPGGA,181110.80,5243.3576339,N,00719.1708135,W,4,13,1.0,60.430,M,56.132,M,0.2,0000*6E$GPGGA,181110.80,5243.3576339,N,00719.1708135,W,4,13,1.0,60.430,M,56.132,M,0.2,0000*6E,,,,613495.1679407891,5842740.37447085,4,143
$GPRMC,181111.20,A,5243.3576304,N,00719.1708121,W,0.07,314.33,220422,0.0,E,R,V*43$GPGGA,181111.20,5243.3576304,N,00719.1708121,W,4,13,1.0,60.438,M,56.132,M,0.2,0000*66$GPGGA,181111.20,5243.3576304,N,00719.1708121,W,4,13,1.0,60.438,M,56.132,M,0.2,0000*66,,,,613495.1696679981,5842740.36801958,4,144
$GPRMC,181111.60,A,5243.3576325,N,00719.1708093,W,0.04,314.33,220422,0.0,E,R,V*4F$GPGGA,181111.60,5243.3576325,N,00719.1708093,W,4,13,1.0,60.443,M,56.132,M,0.2,0000*65$GPGGA,181111.60,5243.3576325,N,00719.1708093,W,4,13,1.0,60.443,M,56.132,M,0.2,0000*65,,,,613495.1727286109,5842740.371985987,4,145
$GPRMC,181112.00,A,5243.3576311,N,00719.1708108,W,0.04,314.33,220422,0.0,E,R,V*4E$GPGGA,181112.00,5243.3576311,N,00719.1708108,W,4,13,1.0,60.441,M,56.132,M,0.2,0000*66$GPGGA,181112.00,5243.3576311,N,00719.1708108,W,4,13,1.0,60.441,M,56.132,M,0.2,0000*66,,,,613495.1711008976,5842740.36935135,4,146
$GPRMC,181112.40,A,5243.3576336,N,00719.1708079,W,0.08,314.33,220422,0.0,E,R,V*44$GPGGA,181112.40,5243.3576336,N,00719.1708079,W,4,13,1.0,60.445,M,56.132,M,0.2,0000*64$GPGGA,181112.40,5243.3576336,N,00719.1708079,W,4,13,1.0,60.445,M,56.132,M,0.2,0000*64,,,,613495.1742567534,5842740.374061874,4,147
$GPRMC,181112.80,A,5243.3576364,N,00719.1708073,W,0.07,314.33,220422,0.0,E,R,V*4A$GPGGA,181112.80,5243.3576364,N,00719.1708073,W,4,13,1.0,60.441,M,56.132,M,0.2,0000*61$GPGGA,181112.80,5243.3576364,N,00719.1708073,W,4,13,1.0,60.441,M,56.132,M,0.2,0000*61,,,,613495.174810902,5842740.379268086,4,148
$GPRMC,181113.20,A,5243.3576375,N,00719.1708066,W,0.15,314.33,220422,0.0,E,R,V*46$GPGGA,181113.20,5243.3576375,N,00719.1708066,W,4,13,1.0,60.444,M,56.132,M,0.2,0000*6B$GPGGA,181113.20,5243.3576375,N,00719.1708066,W,4,13,1.0,60.444,M,56.132,M,0.2,0000*6B,,,,613495.1755511719,5842740.381325581,4,149
$GPRMC,181113.60,A,5243.3576367,N,00719.1708073,W,0.09,314.33,220422,0.0,E,R,V*48$GPGGA,181113.60,5243.3576367,N,00719.1708073,W,4,13,1.0,60.445,M,56.132,M,0.2,0000*69$GPGGA,181113.60,5243.3576367,N,00719.1708073,W,4,13,1.0,60.445,M,56.132,M,0.2,0000*69,,,,613495.1747979195,5842740.3798242025,4,150
$GPRMC,181114.00,A,5243.3576358,N,00719.1708072,W,0.04,314.33,220422,0.0,E,R,V*49$GPGGA,181114.00,5243.3576358,N,00719.1708072,W,4,13,1.0,60.442,M,56.132,M,0.2,0000*62$GPGGA,181114.00,5243.3576358,N,00719.1708072,W,4,13,1.0,60.442,M,56.132,M,0.2,0000*62,,,,613495.1749494204,5842740.378158475,4,151
$GPRMC,181114.40,A,5243.3576361,N,00719.1708082,W,0.04,314.33,220422,0.0,E,R,V*48$GPGGA,181114.40,5243.3576361,N,00719.1708082,W,4,13,1.0,60.439,M,56.132,M,0.2,0000*6F$GPGGA,181114.40,5243.3576361,N,00719.1708082,W,4,13,1.0,60.439,M,56.132,M,0.2,0000*6F,,,,613495.1738109054,5842740.378688317,4,152
$GPRMC,181114.80,A,5243.3576349,N,00719.1708100,W,0.05,314.33,220422,0.0,E,R,V*44$GPGGA,181114.80,5243.3576349,N,00719.1708100,W,4,13,1.0,60.440,M,56.132,M,0.2,0000*6C$GPGGA,181114.80,5243.3576349,N,00719.1708100,W,4,13,1.0,60.440,M,56.132,M,0.2,0000*6C,,,,613495.1718368774,5842740.376416546,4,153
$GPRMC,181115.20,A,5243.3576355,N,00719.1708130,W,0.16,314.33,220422,0.0,E,R,V*43$GPGGA,181115.20,5243.3576355,N,00719.1708130,W,4,13,1.0,60.449,M,56.132,M,0.2,0000*60$GPGGA,181115.20,5243.3576355,N,00719.1708130,W,4,13,1.0,60.449,M,56.132,M,0.2,0000*60,,,,613495.168434315,5842740.377449956,4,154
$GPRMC,181115.60,A,5243.3576293,N,00719.1708153,W,0.15,314.33,220422,0.0,E,R,V*4A$GPGGA,181115.60,5243.3576293,N,00719.1708153,W,4,13,1.0,60.426,M,56.132,M,0.2,0000*63$GPGGA,181115.60,5243.3576293,N,00719.1708153,W,4,13,1.0,60.426,M,56.132,M,0.2,0000*63,,,,613495.1661138971,5842740.3658963945,4,155
$GPRMC,181116.00,A,5243.3576672,N,00719.1708457,W,0.81,314.33,220422,0.0,E,R,V*48$GPGGA,181116.00,5243.3576672,N,00719.1708457,W,4,13,1.0,60.404,M,56.132,M,0.2,0000*6C$GPGGA,181116.00,5243.3576672,N,00719.1708457,W,4,13,1.0,60.404,M,56.132,M,0.2,0000*6C,,,,613495.130257577,5842740.435353997,4,156
$GPRMC,181116.40,A,5243.3576843,N,00719.1708571,W,0.17,314.33,220422,0.0,E,R,V*4A$GPGGA,181116.40,5243.3576843,N,00719.1708571,W,4,13,1.0,60.375,M,56.132,M,0.2,0000*60$GPGGA,181116.40,5243.3576843,N,00719.1708571,W,4,13,1.0,60.375,M,56.132,M,0.2,0000*60,,,,613495.1166864999,5842740.466753245,4,157
$GPRMC,181116.80,A,5243.3576883,N,00719.1708589,W,0.06,314.33,220422,0.0,E,R,V*4D$GPGGA,181116.80,5243.3576883,N,00719.1708589,W,4,13,1.0,60.375,M,56.132,M,0.2,0000*67$GPGGA,181116.80,5243.3576883,N,00719.1708589,W,4,13,1.0,60.375,M,56.132,M,0.2,0000*67,,,,613495.1144874404,5842740.47412087,4,158
$GPRMC,181117.20,A,5243.3576861,N,00719.1708580,W,0.06,314.33,220422,0.0,E,R,V*43$GPGGA,181117.20,5243.3576861,N,00719.1708580,W,4,13,1.0,60.383,M,56.132,M,-0.0,0000*4F$GPGGA,181117.20,5243.3576861,N,00719.1708580,W,4,13,1.0,60.383,M,56.132,M,-0.0,0000*4F,,,,613495.1155956252,5842740.470066312,4,159
$GPRMC,181117.60,A,5243.3576875,N,00719.1708576,W,0.02,314.33,220422,0.0,E,R,V*4F$GPGGA,181117.60,5243.3576875,N,00719.1708576,W,4,13,1.0,60.381,M,56.132,M,0.2,0000*6A$GPGGA,181117.60,5243.3576875,N,00719.1708576,W,4,13,1.0,60.381,M,56.132,M,0.2,0000*6A,,,,613495.1159852529,5842740.472672044,4,160
$GPRMC,181118.00,A,5243.3576873,N,00719.1708590,W,0.04,314.33,220422,0.0,E,R,V*4E$GPGGA,181118.00,5243.3576873,N,00719.1708590,W,4,13,1.0,60.380,M,56.132,M,0.2,0000*6C$GPGGA,181118.00,5243.3576873,N,00719.1708590,W,4,13,1.0,60.380,M,56.132,M,0.2,0000*6C,,,,613495.1144181625,5842740.472264512,4,161
$GPRMC,181118.40,A,5243.3576882,N,00719.1708576,W,0.05,314.33,220422,0.0,E,R,V*4D$GPGGA,181118.40,5243.3576882,N,00719.1708576,W,4,13,1.0,60.380,M,56.132,M,-0.0,0000*41$GPGGA,181118.40,5243.3576882,N,00719.1708576,W,4,13,1.0,60.380,M,56.132,M,-0.0,0000*41,,,,613495.1159549602,5842740.473969656,4,162
$GPRMC,181118.80,A,5243.3576896,N,00719.1708581,W,0.07,314.33,220422,0.0,E,R,V*4E$GPGGA,181118.80,5243.3576896,N,00719.1708581,W,4,13,1.0,60.379,M,56.132,M,0.2,0000*69$GPGGA,181118.80,5243.3576896,N,00719.1708581,W,4,13,1.0,60.379,M,56.132,M,0.2,0000*69,,,,613495.1153316085,5842740.476551741,4,163
$GPRMC,181119.20,A,5243.3576881,N,00719.1708576,W,0.06,314.33,220422,0.0,E,R,V*4A$GPGGA,181119.20,5243.3576881,N,00719.1708576,W,4,13,1.0,60.378,M,56.132,M,0.2,0000*6D$GPGGA,181119.20,5243.3576881,N,00719.1708576,W,4,13,1.0,60.378,M,56.132,M,0.2,0000*6D,,,,613495.1159592876,5842740.473784283,4,164
$GPRMC,181119.60,A,5243.3576217,N,00719.1708158,W,1.42,314.33,220422,0.0,E,R,V*42$GPGGA,181119.60,5243.3576217,N,00719.1708158,W,4,13,1.0,60.424,M,56.132,M,0.2,0000*6A$GPGGA,181119.60,5243.3576217,N,00719.1708158,W,4,13,1.0,60.424,M,56.132,M,0.2,0000*6A,,,,613495.1658800233,5842740.351794907,4,165
$GPRMC,181120.00,A,5243.3576432,N,00719.1708209,W,0.20,314.33,220422,0.0,E,R,V*4D$GPGGA,181120.00,5243.3576432,N,00719.1708209,W,4,13,1.0,60.427,M,56.132,M,0.2,0000*63$GPGGA,181120.00,5243.3576432,N,00719.1708209,W,4,13,1.0,60.427,M,56.132,M,0.2,0000*63,,,,613495.1592093888,5842740.391516104,4,166
$GPRMC,181120.40,A,5243.3576455,N,00719.1708110,W,0.32,314.33,220422,0.0,E,R,V*40$GPGGA,181120.40,5243.3576455,N,00719.1708110,W,4,13,1.0,60.445,M,56.132,M,-0.0,0000*46$GPGGA,181120.40,5243.3576455,N,00719.1708110,W,4,13,1.0,60.445,M,56.132,M,-0.0,0000*46,,,,613495.1702526268,5842740.396039812,4,167
$GPRMC,181120.80,A,5243.3576391,N,00719.1708150,W,0.16,314.33,220422,0.0,E,R,V*41$GPGGA,181120.80,5243.3576391,N,00719.1708150,W,4,12,1.0,60.441,M,56.132,M,0.2,0000*6B$GPGGA,181120.80,5243.3576391,N,00719.1708150,W,4,12,1.0,60.441,M,56.132,M,0.2,0000*6B,,,,613495.1660274589,5842740.384070835,4,168
$GPRMC,181121.20,A,5243.3576387,N,00719.1708137,W,0.05,314.33,220422,0.0,E,R,V*4E$GPGGA,181121.20,5243.3576387,N,00719.1708137,W,4,12,1.0,60.434,M,56.132,M,0.2,0000*64$GPGGA,181121.20,5243.3576387,N,00719.1708137,W,4,12,1.0,60.434,M,56.132,M,0.2,0000*64,,,,613495.167507961,5842740.383363501,4,169
$GPRMC,181121.60,A,5243.3576347,N,00719.1708162,W,0.14,314.33,220422,0.0,E,R,V*46$GPGGA,181121.60,5243.3576347,N,00719.1708162,W,4,12,1.0,60.436,M,56.132,M,0.2,0000*6E$GPGGA,181121.60,5243.3576347,N,00719.1708162,W,4,12,1.0,60.436,M,56.132,M,0.2,0000*6E,,,,613495.1648672313,5842740.375882891,4,170
$GPRMC,181122.00,A,5243.3576328,N,00719.1708205,W,0.10,314.33,220422,0.0,E,R,V*4C$GPGGA,181122.00,5243.3576328,N,00719.1708205,W,4,13,1.0,60.432,M,56.132,M,0.2,0000*65$GPGGA,181122.00,5243.3576328,N,00719.1708205,W,4,13,1.0,60.432,M,56.132,M,0.2,0000*65,,,,613495.1601096648,5842740.37224782,4,171
$GPRMC,181122.40,A,5243.3576301,N,00719.1708195,W,0.06,314.33,220422,0.0,E,R,V*4E$GPGGA,181122.40,5243.3576301,N,00719.1708195,W,4,13,1.0,60.421,M,56.132,M,0.2,0000*62$GPGGA,181122.40,5243.3576301,N,00719.1708195,W,4,13,1.0,60.421,M,56.132,M,0.2,0000*62,,,,613495.1613520406,5842740.367269024,4,172
$GPRMC,181122.80,A,5243.3576314,N,00719.1708212,W,0.10,314.33,220422,0.0,E,R,V*4D$GPGGA,181122.80,5243.3576314,N,00719.1708212,W,4,13,1.0,60.429,M,56.132,M,-0.0,0000*41$GPGGA,181122.80,5243.3576314,N,00719.1708212,W,4,13,1.0,60.429,M,56.132,M,-0.0,0000*41,,,,613495.1593823774,5842740.369634205,4,173
$GPRMC,181123.20,A,5243.3576307,N,00719.1708216,W,0.06,314.33,220422,0.0,E,R,V*47$GPGGA,181123.20,5243.3576307,N,00719.1708216,W,4,13,1.0,60.429,M,56.132,M,0.2,0000*63$GPGGA,181123.20,5243.3576307,N,00719.1708216,W,4,13,1.0,60.429,M,56.132,M,0.2,0000*63,,,,613495.1589624573,5842740.368326084,4,174
$GPRMC,181123.60,A,5243.3576112,N,00719.1708106,W,0.42,314.33,220422,0.0,E,R,V*47$GPGGA,181123.60,5243.3576112,N,00719.1708106,W,4,13,1.0,60.452,M,56.132,M,-0.0,0000*40$GPGGA,181123.60,5243.3576112,N,00719.1708106,W,4,13,1.0,60.452,M,56.132,M,-0.0,0000*40,,,,613495.1721871827,5842740.332467372,4,175
$GPRMC,181124.00,A,5243.3575457,N,00719.1705701,W,1.42,314.33,220422,0.0,E,R,V*4C$GPGGA,181124.00,5243.3575457,N,00719.1705701,W,4,13,1.0,60.465,M,56.132,M,0.2,0000*61$GPGGA,181124.00,5243.3575457,N,00719.1705701,W,4,13,1.0,60.465,M,56.132,M,0.2,0000*61,,,,613495.445712278,5842740.217367312,4,176
$GPRMC,181124.40,A,5243.3574955,N,00719.1704519,W,0.52,314.33,220422,0.0,E,R,V*4C$GPGGA,181124.40,5243.3574955,N,00719.1704519,W,4,13,1.0,60.455,M,56.132,M,0.2,0000*62$GPGGA,181124.40,5243.3574955,N,00719.1704519,W,4,13,1.0,60.455,M,56.132,M,0.2,0000*62,,,,613495.5809226457,5842740.127415829,4,177
$GPRMC,181124.80,A,5243.3575363,N,00719.1704271,W,0.33,314.33,220422,0.0,E,R,V*40$GPGGA,181124.80,5243.3575363,N,00719.1704271,W,4,13,1.0,60.454,M,56.132,M,0.2,0000*68$GPGGA,181124.80,5243.3575363,N,00719.1704271,W,4,13,1.0,60.454,M,56.132,M,0.2,0000*68,,,,613495.6070702127,5842740.20369966,4,178
$GPRMC,181125.20,A,5243.3576563,N,00719.1703301,W,1.11,314.33,220422,0.0,E,R,V*4E$GPGGA,181125.20,5243.3576563,N,00719.1703301,W,4,13,1.0,60.455,M,56.132,M,0.2,0000*66$GPGGA,181125.20,5243.3576563,N,00719.1703301,W,4,13,1.0,60.455,M,56.132,M,0.2,0000*66,,,,613495.7110538027,5842740.4286960345,4,179
$GPRMC,181125.60,A,5243.3578013,N,00719.1702315,W,2.01,29.89,220422,0.0,E,R,V*7C$GPGGA,181125.60,5243.3578013,N,00719.1702315,W,4,13,1.0,60.450,M,56.132,M,0.2,0000*6F$GPGGA,181125.60,5243.3578013,N,00719.1702315,W,4,13,1.0,60.450,M,56.132,M,0.2,0000*6F,,,,613495.8157563454,5842740.70007771,4,180
$GPRMC,181126.00,A,5243.3579911,N,00719.1700387,W,2.93,30.29,220422,0.0,E,R,V*73$GPGGA,181126.00,5243.3579911,N,00719.1700387,W,4,13,1.0,60.425,M,56.132,M,0.2,0000*6B$GPGGA,181126.00,5243.3579911,N,00719.1700387,W,4,13,1.0,60.425,M,56.132,M,0.2,0000*6B,,,,613496.0245452707,5842741.056981679,4,181
$GPRMC,181126.40,A,5243.3581370,N,00719.1698655,W,2.12,51.15,220422,0.0,E,R,V*76$GPGGA,181126.40,5243.3581370,N,00719.1698655,W,4,13,1.0,60.443,M,56.132,M,0.2,0000*6F$GPGGA,181126.40,5243.3581370,N,00719.1698655,W,4,13,1.0,60.443,M,56.132,M,0.2,0000*6F,,,,613496.2131735367,5842741.331991894,4,182
$GPRMC,181126.80,A,5243.3583035,N,00719.1696959,W,1.61,51.15,220422,0.0,E,R,V*70$GPGGA,181126.80,5243.3583035,N,00719.1696959,W,4,13,1.0,60.470,M,56.132,M,0.2,0000*6E$GPGGA,181126.80,5243.3583035,N,00719.1696959,W,4,13,1.0,60.470,M,56.132,M,0.2,0000*6E,,,,613496.3968583837,5842741.645094365,4,183
$GPRMC,181127.20,A,5243.3584916,N,00719.1694363,W,2.34,37.25,220422,0.0,E,R,V*75$GPGGA,181127.20,5243.3584916,N,00719.1694363,W,4,13,1.0,60.470,M,56.132,M,0.2,0000*6B$GPGGA,181127.20,5243.3584916,N,00719.1694363,W,4,13,1.0,60.470,M,56.132,M,0.2,0000*6B,,,,613496.6809063342,5842742.000602246,4,184
$GPRMC,181127.60,A,5243.3586372,N,00719.1691560,W,2.06,56.88,220422,0.0,E,R,V*7A$GPGGA,181127.60,5243.3586372,N,00719.1691560,W,4,13,1.0,60.482,M,56.132,M,0.2,0000*68$GPGGA,181127.60,5243.3586372,N,00719.1691560,W,4,13,1.0,60.482,M,56.132,M,0.2,0000*68,,,,613496.9900919857,5842742.277870522,4,185
$GPRMC,181128.00,A,5243.3588007,N,00719.1689163,W,2.39,43.00,220422,0.0,E,R,V*7A$GPGGA,181128.00,5243.3588007,N,00719.1689163,W,4,13,1.0,60.488,M,56.132,M,0.2,0000*6A$GPGGA,181128.00,5243.3588007,N,00719.1689163,W,4,13,1.0,60.488,M,56.132,M,0.2,0000*6A,,,,613497.252806362,5842742.587253783,4,186
$GPRMC,181128.40,A,5243.3589249,N,00719.1686314,W,1.43,43.00,220422,0.0,E,R,V*74$GPGGA,181128.40,5243.3589249,N,00719.1686314,W,4,13,1.0,60.490,M,56.132,M,0.2,0000*63$GPGGA,181128.40,5243.3589249,N,00719.1686314,W,4,13,1.0,60.490,M,56.132,M,0.2,0000*63,,,,613497.5680955015,5842742.824973136,4,187
$GPRMC,181128.80,A,5243.3590702,N,00719.1683051,W,1.66,43.00,220422,0.0,E,R,V*7A$GPGGA,181128.80,5243.3590702,N,00719.1683051,W,4,13,1.0,60.464,M,56.132,M,-0.0,0000*4E$GPGGA,181128.80,5243.3590702,N,00719.1683051,W,4,13,1.0,60.464,M,56.132,M,-0.0,0000*4E,,,,613497.9290684962,5842743.102894057,4,188
$GPRMC,181129.20,A,5243.3591341,N,00719.1681064,W,1.02,43.00,220422,0.0,E,R,V*75$GPGGA,181129.20,5243.3591341,N,00719.1681064,W,4,13,1.0,60.522,M,56.132,M,-0.0,0000*40$GPGGA,181129.20,5243.3591341,N,00719.1681064,W,4,13,1.0,60.522,M,56.132,M,-0.0,0000*40,,,,613498.1499463025,5842743.226568506,4,189
$GPRMC,181129.60,A,5243.3592578,N,00719.1677861,W,1.59,43.00,220422,0.0,E,R,V*74$GPGGA,181129.60,5243.3592578,N,00719.1677861,W,4,13,1.0,60.522,M,56.132,M,0.2,0000*60$GPGGA,181129.60,5243.3592578,N,00719.1677861,W,4,13,1.0,60.522,M,56.132,M,0.2,0000*60,,,,613498.5051008192,5842743.4642912345,4,190
$GPRMC,181130.00,A,5243.3593596,N,00719.1675093,W,2.02,48.30,220422,0.0,E,R,V*79$GPGGA,181130.00,5243.3593596,N,00719.1675093,W,4,13,1.0,60.566,M,56.132,M,0.2,0000*68$GPGGA,181130.00,5243.3593596,N,00719.1675093,W,4,13,1.0,60.566,M,56.132,M,0.2,0000*68,,,,613498.8122424334,5842743.660274276,4,191
$GPRMC,181130.40,A,5243.3594705,N,00719.1671948,W,2.10,47.29,220422,0.0,E,R,V*7D$GPGGA,181130.40,5243.3594705,N,00719.1671948,W,4,13,1.0,60.603,M,56.132,M,0.2,0000*68$GPGGA,181130.40,5243.3594705,N,00719.1671948,W,4,13,1.0,60.603,M,56.132,M,0.2,0000*68,,,,613499.161422747,5842743.874116902,4,192
$GPRMC,181130.80,A,5243.3595773,N,00719.1669589,W,2.16,63.77,220422,0.0,E,R,V*72$GPGGA,181130.80,5243.3595773,N,00719.1669589,W,4,13,1.0,60.614,M,56.132,M,0.2,0000*6A$GPGGA,181130.80,5243.3595773,N,00719.1669589,W,4,13,1.0,60.614,M,56.132,M,0.2,0000*6A,,,,613499.4223136818,5842744.078293926,4,193
$GPRMC,181131.20,A,5243.3596885,N,00719.1667035,W,1.21,63.77,220422,0.0,E,R,V*77$GPGGA,181131.20,5243.3596885,N,00719.1667035,W,4,13,1.0,60.607,M,56.132,M,0.2,0000*6A$GPGGA,181131.20,5243.3596885,N,00719.1667035,W,4,13,1.0,60.607,M,56.132,M,0.2,0000*6A,,,,613499.7049620412,5842744.291139769,4,194
$GPRMC,181131.60,A,5243.3598116,N,00719.1664301,W,1.45,63.77,220422,0.0,E,R,V*7B$GPGGA,181131.60,5243.3598116,N,00719.1664301,W,4,12,1.0,60.624,M,56.132,M,0.2,0000*64$GPGGA,181131.60,5243.3598116,N,00719.1664301,W,4,12,1.0,60.624,M,56.132,M,0.2,0000*64,,,,613500.0073549441,5842744.526518004,4,195
$GPRMC,181132.00,A,5243.3599410,N,00719.1661639,W,1.97,51.29,220422,0.0,E,R,V*72$GPGGA,181132.00,5243.3599410,N,00719.1661639,W,4,12,1.0,60.595,M,56.132,M,0.2,0000*61$GPGGA,181132.00,5243.3599410,N,00719.1661639,W,4,12,1.0,60.595,M,56.132,M,0.2,0000*61,,,,613500.3013713441,5842744.77338556,4,196
$GPRMC,181132.40,A,5243.3600529,N,00719.1659056,W,1.30,51.29,220422,0.0,E,R,V*77$GPGGA,181132.40,5243.3600529,N,00719.1659056,W,4,13,1.0,60.626,M,56.132,M,0.2,0000*63$GPGGA,181132.40,5243.3600529,N,00719.1659056,W,4,13,1.0,60.626,M,56.132,M,0.2,0000*63,,,,613500.5872533715,5842744.987605272,4,197
$GPRMC,181132.80,A,5243.3601768,N,00719.1657174,W,2.04,49.20,220422,0.0,E,R,V*76$GPGGA,181132.80,5243.3601768,N,00719.1657174,W,4,13,1.0,60.644,M,56.132,M,0.2,0000*62$GPGGA,181132.80,5243.3601768,N,00719.1657174,W,4,13,1.0,60.644,M,56.132,M,0.2,0000*62,,,,613500.7937162961,5842745.222227755,4,198
$GPRMC,181133.20,A,5243.3602802,N,00719.1654727,W,1.20,49.20,220422,0.0,E,R,V*7B$GPGGA,181133.20,5243.3602802,N,00719.1654727,W,4,13,1.0,60.641,M,56.132,M,0.2,0000*6F$GPGGA,181133.20,5243.3602802,N,00719.1654727,W,4,13,1.0,60.641,M,56.132,M,0.2,0000*6F,,,,613501.0646589092,5842745.420333421,4,199
$GPRMC,181133.60,A,5243.3603719,N,00719.1652499,W,1.96,53.31,220422,0.0,E,R,V*7D$GPGGA,181133.60,5243.3603719,N,00719.1652499,W,4,13,1.0,60.664,M,56.132,M,0.2,0000*68$GPGGA,181133.60,5243.3603719,N,00719.1652499,W,4,13,1.0,60.664,M,56.132,M,0.2,0000*68,,,,613501.3114587155,5842745.5961749945,4,200
$GPRMC,181134.00,A,5243.3604853,N,00719.1649794,W,1.98,62.91,220422,0.0,E,R,V*78$GPGGA,181134.00,5243.3604853,N,00719.1649794,W,4,11,1.0,60.674,M,56.132,M,0.2,0000*68$GPGGA,181134.00,5243.3604853,N,00719.1649794,W,4,11,1.0,60.674,M,56.132,M,0.2,0000*68,,,,613501.6110072143,5842745.8134959405,4,201
