$GNGLL,5243.34633,N,00719.16123,W,192905.60,A,A*6C
$GNGLL,5243.34628,N,00719.16141,W,192905.80,A,A*6C
$GNGLL,5243.34621,N,00719.16159,W,192906.00,A,A*67
$GNGLL,5243.34627,N,00719.16175,W,192906.20,A,A*6D
$GNGLL,5243.34631,N,00719.16193,W,192906.40,A,A*64
$GNGLL,5243.34636,N,00719.16210,W,192906.60,A,A*69
$GNGLL,5243.34638,N,00719.16228,W,192906.80,A,A*62
$GNGLL,5243.34642,N,00719.16247,W,192907.00,A,A*6F
$GNGLL,5243.34644,N,00719.16266,W,192907.20,A,A*68
$GNGLL,5243.34647,N,00719.16284,W,192907.40,A,A*61
$GNGLL,5243.34649,N,00719.16302,W,192907.60,A,A*62
$GNGLL,5243.34651,N,00719.16321,W,192907.80,A,A*64
$GNGLL,5243.34649,N,00719.16341,W,192908.00,A,A*6C
$GNGLL,5243.34650,N,00719.16359,W,192908.20,A,A*6F
$GNGLL,5243.34651,N,00719.16380,W,192908.40,A,A*6C
$GNGLL,5243.34652,N,00719.16400,W,192908.60,A,A*62
$GNGLL,5243.34655,N,00719.16421,W,192908.80,A,A*68
$GNGLL,5243.34658,N,00719.16442,W,192909.00,A,A*69
$GNGLL,5243.34660,N,00719.16463,W,192909.20,A,A*63
$GNGLL,5243.34660,N,00719.16484,W,192909.40,A,A*6C
$GNGLL,5243.34663,N,00719.16505,W,192909.60,A,A*65
$GNGLL,5243.34665,N,00719.16527,W,192909.80,A,A*6D
$GNGLL,5243.34667,N,00719.16548,W,192910.00,A,A*66
$GNGLL,5243.34668,N,00719.16570,W,192910.20,A,A*60
$GNGLL,5243.34669,N,00719.16592,W,192910.40,A,A*6B
$GNGLL,5243.34670,N,00719.16614,W,192910.60,A,A*6C
$GNGLL,5243.34671,N,00719.16636,W,192910.80,A,A*63
$GNGLL,5243.34672,N,00719.16661,W,192911.00,A,A*6B
$GNGLL,5243.34671,N,00719.16684,W,192911.20,A,A*61
$GNGLL,5243.34672,N,00719.16707,W,192911.40,A,A*6E
$GNGLL,5243.34672,N,00719.16729,W,192911.60,A,A*60
$GNGLL,5243.34673,N,00719.16752,W,192911.80,A,A*63
$GNGLL,5243.34675,N,00719.16776,W,192912.00,A,A*68
$GNGLL,5243.34676,N,00719.16798,W,192912.20,A,A*69
$GNGLL,5243.34678,N,00719.16822,W,192912.40,A,A*6F
$GNGLL,5243.34679,N,00719.16844,W,192912.60,A,A*6C
$GNGLL,5243.34682,N,00719.16866,W,192912.80,A,A*66
$GNGLL,5243.34686,N,00719.16891,W,192913.00,A,A*63
$GNGLL,5243.34689,N,00719.16915,W,192913.20,A,A*63
$GNGLL,5243.34691,N,00719.16939,W,192913.40,A,A*62
$GNGLL,5243.34694,N,00719.16964,W,192913.60,A,A*6D
$GNGLL,5243.34698,N,00719.16987,W,192913.80,A,A*62
$GNGLL,5243.34703,N,00719.17011,W,192914.00,A,A*69
$GNGLL,5243.34706,N,00719.17036,W,192914.20,A,A*6B
$GNGLL,5243.34709,N,00719.17061,W,192914.40,A,A*60
$GNGLL,5243.34712,N,00719.17085,W,192914.60,A,A*62
$GNGLL,5243.34716,N,00719.17108,W,192914.80,A,A*6C
$GNGLL,5243.34722,N,00719.17131,W,192915.00,A,A*68
$GNGLL,5243.34728,N,00719.17152,W,192915.20,A,A*65
$GNGLL,5243.34732,N,00719.17174,W,192915.40,A,A*6C
$GNGLL,5243.34737,N,00719.17196,W,192915.60,A,A*67
$GNGLL,5243.34742,N,00719.17218,W,192915.80,A,A*6E
$GNGLL,5243.34749,N,00719.17240,W,192916.00,A,A*63
$GNGLL,5243.34755,N,00719.17262,W,192916.20,A,A*6C
$GNGLL,5243.34761,N,00719.17285,W,192916.40,A,A*64
$GNGLL,5243.34767,N,00719.17307,W,192916.60,A,A*6B
$GNGLL,5243.34773,N,00719.17330,W,192916.80,A,A*64
$GNGLL,5243.34779,N,00719.17352,W,192917.00,A,A*63
$GNGLL,5243.34786,N,00719.17373,W,192917.20,A,A*62
$GNGLL,5243.34794,N,00719.17395,W,192917.40,A,A*6F
$GNGLL,5243.34801,N,00719.17417,W,192917.60,A,A*63
$GNGLL,5243.34807,N,00719.17438,W,192917.80,A,A*66
$GNGLL,5243.34812,N,00719.17460,W,192918.00,A,A*68
$GNGLL,5243.34818,N,00719.17482,W,192918.20,A,A*6C
$GNGLL,5243.34825,N,00719.17503,W,192918.40,A,A*6C
$GNGLL,5243.34832,N,00719.17525,W,192918.60,A,A*6C
$GNGLL,5243.34839,N,00719.17546,W,192918.80,A,A*6C
$GNGLL,5243.34847,N,00719.17566,W,192919.00,A,A*6E
$GNGLL,5243.34855,N,00719.17586,W,192919.20,A,A*61
$GNGLL,5243.34863,N,00719.17605,W,192919.40,A,A*6A
$GNGLL,5243.34871,N,00719.17626,W,192919.60,A,A*6A
$GNGLL,5243.34879,N,00719.17646,W,192919.80,A,A*6A
$GNGLL,5243.34887,N,00719.17665,W,192920.00,A,A*68
$GNGLL,5243.34894,N,00719.17685,W,192920.20,A,A*66
$GNGLL,5243.34902,N,00719.17704,W,192920.40,A,A*66
$GNGLL,5243.34909,N,00719.17723,W,192920.60,A,A*6A
$GNGLL,5243.34917,N,00719.17743,W,192920.80,A,A*6D
$GNGLL,5243.34924,N,00719.17763,W,192921.00,A,A*66
$GNGLL,5243.34931,N,00719.17782,W,192921.20,A,A*6F
$GNGLL,5243.34939,N,00719.17802,W,192921.40,A,A*66
$GNGLL,5243.34946,N,00719.17821,W,192921.60,A,A*6D
$GNGLL,5243.34954,N,00719.17842,W,192921.80,A,A*65
$GNGLL,5243.34963,N,00719.17863,W,192922.00,A,A*69
$GNGLL,5243.34970,N,00719.17883,W,192922.20,A,A*67
$GNGLL,5243.34979,N,00719.17903,W,192922.40,A,A*61
$GNGLL,5243.34987,N,00719.17922,W,192922.60,A,A*61
$GNGLL,5243.34995,N,00719.17942,W,192922.80,A,A*6A
$GNGLL,5243.35004,N,00719.17962,W,192923.00,A,A*61
$GNGLL,5243.35012,N,00719.17980,W,192923.20,A,A*68
$GNGLL,5243.35021,N,00719.17997,W,192923.40,A,A*68
$GNGLL,5243.35029,N,00719.18016,W,192923.60,A,A*6D
$GNGLL,5243.35038,N,00719.18035,W,192923.80,A,A*62
$GNGLL,5243.35047,N,00719.18055,W,192924.00,A,A*63
$GNGLL,5243.35052,N,00719.18081,W,192924.20,A,A*6C
$GNGLL,5243.35059,N,00719.18103,W,192924.40,A,A*6A
$GNGLL,5243.35066,N,00719.18126,W,192924.60,A,A*63
$GNGLL,5243.35074,N,00719.18147,W,192924.80,A,A*69
$GNGLL,5243.35083,N,00719.18170,W,192925.00,A,A*6C
$GNGLL,5243.35092,N,00719.18195,W,192925.20,A,A*65
$GNGLL,5243.35101,N,00719.18217,W,192925.40,A,A*61
$GNGLL,5243.35112,N,00719.18239,W,192925.60,A,A*6D
$GNGLL,5243.35122,N,00719.18262,W,192925.80,A,A*6E
$GNGLL,5243.35132,N,00719.18286,W,192926.00,A,A*6E
$GNGLL,5243.35141,N,00719.18311,W,192926.20,A,A*67
$GNGLL,5243.35150,N,00719.18334,W,192926.40,A,A*66
$GNGLL,5243.35159,N,00719.18357,W,192926.60,A,A*68
$GNGLL,5243.35169,N,00719.18379,W,192926.80,A,A*69
$GNGLL,5243.35180,N,00719.18403,W,192927.00,A,A*6D
$GNGLL,5243.35190,N,00719.18427,W,192927.20,A,A*68
$GNGLL,5243.35200,N,00719.18450,W,192927.40,A,A*64
$GNGLL,5243.35211,N,00719.18471,W,192927.60,A,A*65
$GNGLL,5243.35221,N,00719.18493,W,192927.80,A,A*64
$GNGLL,5243.35230,N,00719.18514,W,192928.00,A,A*6D
$GNGLL,5243.35240,N,00719.18536,W,192928.20,A,A*68
$GNGLL,5243.35251,N,00719.18557,W,192928.40,A,A*69
$GNGLL,5243.35259,N,00719.18577,W,192928.60,A,A*61
$GNGLL,5243.35271,N,00719.18598,W,192928.80,A,A*64
$GNGLL,5243.35282,N,00719.18617,W,192929.00,A,A*65
$GNGLL,5243.35292,N,00719.18638,W,192929.20,A,A*6B
$GNGLL,5243.35303,N,00719.18658,W,192929.40,A,A*62
$GNGLL,5243.35314,N,00719.18678,W,192929.60,A,A*64
$GNGLL,5243.35326,N,00719.18698,W,192929.80,A,A*65
$GNGLL,5243.35333,N,00719.18718,W,192930.00,A,A*68
$GNGLL,5243.35340,N,00719.18737,W,192930.20,A,A*63
$GNGLL,5243.35346,N,00719.18757,W,192930.40,A,A*65
$GNGLL,5243.35353,N,00719.18777,W,192930.60,A,A*61
$GNGLL,5243.35360,N,00719.18794,W,192930.80,A,A*62
$GNGLL,5243.35367,N,00719.18812,W,192931.00,A,A*6D
$GNGLL,5243.35375,N,00719.18827,W,192931.20,A,A*6A
$GNGLL,5243.35382,N,00719.18843,W,192931.40,A,A*66
$GNGLL,5243.35389,N,00719.18856,W,192931.60,A,A*6B
$GNGLL,5243.35395,N,00719.18866,W,192931.80,A,A*6B
$GNGLL,5243.35403,N,00719.18874,W,192932.00,A,A*6B
$GNGLL,5243.35410,N,00719.18880,W,192932.20,A,A*60
$GNGLL,5243.35417,N,00719.18887,W,192932.40,A,A*66
$GNGLL,5243.35423,N,00719.18893,W,192932.60,A,A*66
$GNGLL,5243.35430,N,00719.18897,W,192932.80,A,A*6E
$GNGLL,5243.35435,N,00719.18901,W,192933.00,A,A*6C
$GNGLL,5243.35440,N,00719.18904,W,192933.20,A,A*69
$GNGLL,5243.35446,N,00719.18906,W,192933.40,A,A*6B
$GNGLL,5243.35452,N,00719.18908,W,192933.60,A,A*62
$GNGLL,5243.35458,N,00719.18910,W,192933.80,A,A*6F
$GNGLL,5243.35464,N,00719.18909,W,192934.00,A,A*67
$GNGLL,5243.35469,N,00719.18904,W,192934.20,A,A*65
$GNGLL,5243.35475,N,00719.18901,W,192934.40,A,A*6B
$GNGLL,5243.35481,N,00719.18897,W,192934.60,A,A*6C
$GNGLL,5243.35487,N,00719.18893,W,192934.80,A,A*60
$GNGLL,5243.35491,N,00719.18886,W,192935.00,A,A*6A
$GNGLL,5243.35496,N,00719.18876,W,192935.20,A,A*60
$GNGLL,5243.35501,N,00719.18868,W,192935.40,A,A*66
$GNGLL,5243.35506,N,00719.18859,W,192935.60,A,A*61
$GNGLL,5243.35510,N,00719.18852,W,192935.80,A,A*63
$GNGLL,5243.35514,N,00719.18845,W,192936.00,A,A*6A
$GNGLL,5243.35516,N,00719.18838,W,192936.20,A,A*60
$GNGLL,5243.35518,N,00719.18830,W,192936.40,A,A*60
$GNGLL,5243.35521,N,00719.18823,W,192936.60,A,A*6A
$GNGLL,5243.35521,N,00719.18815,W,192936.80,A,A*61
$GNGLL,5243.35520,N,00719.18806,W,192937.00,A,A*6B
$GNGLL,5243.35519,N,00719.18798,W,192937.20,A,A*6B
$GNGLL,5243.35516,N,00719.18787,W,192937.40,A,A*6C
$GNGLL,5243.35514,N,00719.18777,W,192937.60,A,A*63
$GNGLL,5243.35511,N,00719.18764,W,192937.80,A,A*6A
$GNGLL,5243.35507,N,00719.18753,W,192938.00,A,A*6E
$GNGLL,5243.35505,N,00719.18744,W,192938.20,A,A*68
$GNGLL,5243.35501,N,00719.18736,W,192938.40,A,A*6F
$GNGLL,5243.35495,N,00719.18727,W,192938.60,A,A*61
$GNGLL,5243.35491,N,00719.18715,W,192938.80,A,A*6A
$GNGLL,5243.35486,N,00719.18705,W,192939.00,A,A*64
$GNGLL,5243.35479,N,00719.18695,W,192939.20,A,A*6E
$GNGLL,5243.35473,N,00719.18685,W,192939.40,A,A*63
$GNGLL,5243.35467,N,00719.18674,W,192939.60,A,A*6A
$GNGLL,5243.35462,N,00719.18663,W,192939.80,A,A*67
$GNGLL,5243.35455,N,00719.18650,W,192940.00,A,A*65
$GNGLL,5243.35449,N,00719.18638,W,192940.20,A,A*64
$GNGLL,5243.35442,N,00719.18628,W,192940.40,A,A*68
$GNGLL,5243.35436,N,00719.18617,W,192940.60,A,A*65
$GNGLL,5243.35430,N,00719.18605,W,192940.80,A,A*6E
$GNGLL,5243.35422,N,00719.18591,W,192941.00,A,A*6A
$GNGLL,5243.35416,N,00719.18578,W,192941.20,A,A*68
$GNGLL,5243.35410,N,00719.18567,W,192941.40,A,A*66
$GNGLL,5243.35404,N,00719.18554,W,192941.60,A,A*61
$GNGLL,5243.35396,N,00719.18543,W,192941.80,A,A*65
$GNGLL,5243.35389,N,00719.18527,W,192942.00,A,A*62
$GNGLL,5243.35381,N,00719.18513,W,192942.20,A,A*6F
$GNGLL,5243.35372,N,00719.18499,W,192942.40,A,A*66
$GNGLL,5243.35364,N,00719.18486,W,192942.60,A,A*6D
$GNGLL,5243.35356,N,00719.18473,W,192942.80,A,A*68
$GNGLL,5243.35347,N,00719.18457,W,192943.00,A,A*67
$GNGLL,5243.35339,N,00719.18442,W,192943.20,A,A*68
$GNGLL,5243.35332,N,00719.18429,W,192943.40,A,A*68
$GNGLL,5243.35325,N,00719.18417,W,192943.60,A,A*61
$GNGLL,5243.35318,N,00719.18404,W,192943.80,A,A*63
$GNGLL,5243.35310,N,00719.18390,W,192944.00,A,A*6E
$GNGLL,5243.35302,N,00719.18376,W,192944.20,A,A*67
$GNGLL,5243.35295,N,00719.18362,W,192944.40,A,A*6B
$GNGLL,5243.35288,N,00719.18348,W,192944.60,A,A*6D
$GNGLL,5243.35279,N,00719.18334,W,192944.80,A,A*66
$GNGLL,5243.35271,N,00719.18321,W,192945.00,A,A*63
$GNGLL,5243.35264,N,00719.18306,W,192945.20,A,A*60
$GNGLL,5243.35257,N,00719.18293,W,192945.40,A,A*6B
$GNGLL,5243.35249,N,00719.18279,W,192945.60,A,A*62
$GNGLL,5243.35243,N,00719.18267,W,192945.80,A,A*69
$GNGLL,5243.35234,N,00719.18254,W,192946.00,A,A*62
$GNGLL,5243.35226,N,00719.18239,W,192946.20,A,A*68
$GNGLL,5243.35217,N,00719.18224,W,192946.40,A,A*60
$GNGLL,5243.35209,N,00719.18208,W,192946.60,A,A*63
$GNGLL,5243.35201,N,00719.18196,W,192946.80,A,A*61
$GNGLL,5243.35193,N,00719.18182,W,192947.00,A,A*65
$GNGLL,5243.35185,N,00719.18168,W,192947.20,A,A*64
$GNGLL,5243.35177,N,00719.18154,W,192947.40,A,A*60
$GNGLL,5243.35169,N,00719.18138,W,192947.60,A,A*67
$GNGLL,5243.35162,N,00719.18125,W,192947.80,A,A*6E
$GNGLL,5243.35155,N,00719.18113,W,192948.00,A,A*68
$GNGLL,5243.35147,N,00719.18100,W,192948.20,A,A*6B
$GNGLL,5243.35138,N,00719.18085,W,192948.40,A,A*69
$GNGLL,5243.35130,N,00719.18071,W,192948.60,A,A*68
$GNGLL,5243.35122,N,00719.18059,W,192948.80,A,A*6F
$GNGLL,5243.35115,N,00719.18048,W,192949.00,A,A*62
$GNGLL,5243.35105,N,00719.18039,W,192949.20,A,A*67
$GNGLL,5243.35096,N,00719.18029,W,192949.40,A,A*6B
$GNGLL,5243.35087,N,00719.18019,W,192949.60,A,A*6A
$GNGLL,5243.35076,N,00719.18013,W,192949.80,A,A*60
$GNGLL,5243.35068,N,00719.18008,W,192950.00,A,A*65
$GNGLL,5243.35059,N,00719.18006,W,192950.20,A,A*6B
$GNGLL,5243.35048,N,00719.18006,W,192950.40,A,A*6D
$GNGLL,5243.35038,N,00719.18005,W,192950.60,A,A*6B
$GNGLL,5243.35027,N,00719.18003,W,192950.80,A,A*6D
$GNGLL,5243.35015,N,00719.18003,W,192951.00,A,A*65
$GNGLL,5243.35003,N,00719.18006,W,192951.20,A,A*65
$GNGLL,5243.34992,N,00719.18012,W,192951.40,A,A*66
$GNGLL,5243.34982,N,00719.18013,W,192951.60,A,A*64
$GNGLL,5243.34941,N,00719.18034,W,192952.40,A,A*6F
$GNGLL,5243.34931,N,00719.18042,W,192952.60,A,A*6B
$GNGLL,5243.34921,N,00719.18049,W,192952.80,A,A*6F
$GNGLL,5243.34911,N,00719.18058,W,192953.00,A,A*65
$GNGLL,5243.34903,N,00719.18065,W,192953.20,A,A*6A
$GNGLL,5243.34895,N,00719.18075,W,192953.40,A,A*63
$GNGLL,5243.34887,N,00719.18083,W,192953.60,A,A*6B
$GNGLL,5243.34878,N,00719.18093,W,192953.80,A,A*64
$GNGLL,5243.34868,N,00719.18100,W,192954.00,A,A*61
$GNGLL,5243.34859,N,00719.18109,W,192954.20,A,A*68
$GNGLL,5243.34852,N,00719.18119,W,192954.40,A,A*64
$GNGLL,5243.34844,N,00719.18128,W,192954.60,A,A*63
$GNGLL,5243.34834,N,00719.18139,W,192954.80,A,A*6A
$GNGLL,5243.34826,N,00719.18146,W,192955.00,A,A*68
$GNGLL,5243.34817,N,00719.18157,W,192955.20,A,A*68
$GNGLL,5243.34811,N,00719.18167,W,192955.40,A,A*6B
$GNGLL,5243.34805,N,00719.18177,W,192955.60,A,A*6D
$GNGLL,5243.34799,N,00719.18189,W,192955.80,A,A*68
$GNGLL,5243.34794,N,00719.18199,W,192956.00,A,A*6F
$GNGLL,5243.34789,N,00719.18207,W,192956.20,A,A*65
$GNGLL,5243.34786,N,00719.18215,W,192956.40,A,A*6F
$GNGLL,5243.34784,N,00719.18226,W,192956.60,A,A*6F
$GNGLL,5243.34783,N,00719.18235,W,192956.80,A,A*64
$GNGLL,5243.34782,N,00719.18244,W,192957.00,A,A*6A
$GNGLL,5243.34783,N,00719.18253,W,192957.20,A,A*6F
$GNGLL,5243.34785,N,00719.18263,W,192957.40,A,A*6C
$GNGLL,5243.34789,N,00719.18270,W,192957.60,A,A*60
$GNGLL,5243.34794,N,00719.18278,W,192957.80,A,A*6A
$GNGLL,5243.34798,N,00719.18286,W,192958.00,A,A*60
$GNGLL,5243.34804,N,00719.18296,W,192958.20,A,A*69
$GNGLL,5243.34809,N,00719.18304,W,192958.40,A,A*68
$GNGLL,5243.34815,N,00719.18312,W,192958.60,A,A*60
$GNGLL,5243.34822,N,00719.18320,W,192958.80,A,A*6B
$GNGLL,5243.34827,N,00719.18328,W,192959.00,A,A*6F
$GNGLL,5243.34833,N,00719.18338,W,192959.20,A,A*69
$GNGLL,5243.34838,N,00719.18347,W,192959.40,A,A*6C
$GNGLL,5243.34843,N,00719.18354,W,192959.60,A,A*60
$GNGLL,5243.34848,N,00719.18361,W,192959.80,A,A*63
$GNGLL,5243.34854,N,00719.18368,W,193000.00,A,A*6B
$GNGLL,5243.34860,N,00719.18376,W,193000.20,A,A*61
$GNGLL,5243.34866,N,00719.18384,W,193000.40,A,A*6C
$GNGLL,5243.34872,N,00719.18391,W,193000.60,A,A*6F
$GNGLL,5243.34878,N,00719.18399,W,193000.80,A,A*63
$GNGLL,5243.34885,N,00719.18406,W,193001.00,A,A*69
$GNGLL,5243.34891,N,00719.18414,W,193001.20,A,A*6D
$GNGLL,5243.34897,N,00719.18422,W,193001.40,A,A*68
$GNGLL,5243.34903,N,00719.18430,W,193001.60,A,A*65
$GNGLL,5243.34909,N,00719.18437,W,193001.80,A,A*66
$GNGLL,5243.34913,N,00719.18444,W,193002.00,A,A*62
$GNGLL,5243.34917,N,00719.18452,W,193002.20,A,A*63
$GNGLL,5243.34921,N,00719.18461,W,193002.40,A,A*60
$GNGLL,5243.34925,N,00719.18471,W,193002.60,A,A*67
$GNGLL,5243.34929,N,00719.18480,W,193002.80,A,A*6B
$GNGLL,5243.34933,N,00719.18490,W,193003.00,A,A*68
$GNGLL,5243.34938,N,00719.18498,W,193003.20,A,A*69
$GNGLL,5243.34942,N,00719.18509,W,193003.40,A,A*6B
$GNGLL,5243.34947,N,00719.18521,W,193003.60,A,A*66
$GNGLL,5243.34951,N,00719.18533,W,193003.80,A,A*6C
$GNGLL,5243.34957,N,00719.18544,W,193004.00,A,A*65
$GNGLL,5243.34962,N,00719.18555,W,193004.20,A,A*61
$GNGLL,5243.34968,N,00719.18567,W,193004.40,A,A*6C
$GNGLL,5243.34974,N,00719.18581,W,193004.60,A,A*6B
$GNGLL,5243.34979,N,00719.18594,W,193004.80,A,A*6C
$GNGLL,5243.34984,N,00719.18605,W,193005.00,A,A*6C
$GNGLL,5243.34990,N,00719.18618,W,193005.20,A,A*67
$GNGLL,5243.34996,N,00719.18630,W,193005.40,A,A*6D
$GNGLL,5243.35002,N,00719.18643,W,193005.60,A,A*6E
$GNGLL,5243.35007,N,00719.18656,W,193005.80,A,A*61
$GNGLL,5243.35012,N,00719.18668,W,193006.00,A,A*63
$GNGLL,5243.35018,N,00719.18679,W,193006.20,A,A*6B
$GNGLL,5243.35024,N,00719.18691,W,193006.40,A,A*64
$GNGLL,5243.35030,N,00719.18702,W,193006.60,A,A*68
$GNGLL,5243.35037,N,00719.18714,W,193006.80,A,A*66
$GNGLL,5243.35043,N,00719.18726,W,193007.00,A,A*6D
$GNGLL,5243.35049,N,00719.18738,W,193007.20,A,A*6A
$GNGLL,5243.35056,N,00719.18750,W,193007.40,A,A*6C
$GNGLL,5243.35063,N,00719.18761,W,193007.60,A,A*6A
$GNGLL,5243.35069,N,00719.18774,W,193007.80,A,A*6A
$GNGLL,5243.35076,N,00719.18787,W,193008.00,A,A*6F
$GNGLL,5243.35082,N,00719.18799,W,193008.20,A,A*69
$GNGLL,5243.35089,N,00719.18811,W,193008.40,A,A*6B
$GNGLL,5243.35096,N,00719.18822,W,193008.60,A,A*67
$GNGLL,5243.35103,N,00719.18834,W,193008.80,A,A*63
$GNGLL,5243.35110,N,00719.18848,W,193009.00,A,A*63
$GNGLL,5243.35117,N,00719.18861,W,193009.20,A,A*6D
$GNGLL,5243.35124,N,00719.18872,W,193009.40,A,A*69
$GNGLL,5243.35131,N,00719.18885,W,193009.60,A,A*67
$GNGLL,5243.35140,N,00719.18896,W,193009.80,A,A*6D
$GNGLL,5243.35147,N,00719.18906,W,193010.00,A,A*62
$GNGLL,5243.35153,N,00719.18919,W,193010.20,A,A*6B
$GNGLL,5243.35161,N,00719.18930,W,193010.40,A,A*67
$GNGLL,5243.35169,N,00719.18939,W,193010.60,A,A*64
$GNGLL,5243.35179,N,00719.18949,W,193010.80,A,A*6C
$GNGLL,5243.35188,N,00719.18959,W,193011.00,A,A*6A
$GNGLL,5243.35198,N,00719.18968,W,193011.20,A,A*6B
$GNGLL,5243.35206,N,00719.18976,W,193011.40,A,A*66
$GNGLL,5243.35214,N,00719.18982,W,193011.60,A,A*6C
$GNGLL,5243.35225,N,00719.18985,W,193011.80,A,A*67
$GNGLL,5243.35234,N,00719.18989,W,193012.00,A,A*60
$GNGLL,5243.35243,N,00719.18993,W,193012.20,A,A*69
$GNGLL,5243.35251,N,00719.18996,W,193012.40,A,A*69
$GNGLL,5243.35257,N,00719.18997,W,193012.60,A,A*6C
$GNGLL,5243.35264,N,00719.18994,W,193012.80,A,A*61
$GNGLL,5243.35270,N,00719.18989,W,193013.00,A,A*61
$GNGLL,5243.35277,N,00719.18984,W,193013.20,A,A*69
$GNGLL,5243.35285,N,00719.18979,W,193013.40,A,A*60
$GNGLL,5243.35292,N,00719.18973,W,193013.60,A,A*6E
$GNGLL,5243.35299,N,00719.18966,W,193013.80,A,A*6F
$GNGLL,5243.35307,N,00719.18957,W,193014.00,A,A*64
$GNGLL,5243.35315,N,00719.18951,W,193014.20,A,A*63
$GNGLL,5243.35323,N,00719.18944,W,193014.40,A,A*64
$GNGLL,5243.35330,N,00719.18938,W,193014.60,A,A*6F
$GNGLL,5243.35337,N,00719.18933,W,193014.80,A,A*6D
$GNGLL,5243.35343,N,00719.18925,W,193015.00,A,A*60
$GNGLL,5243.35349,N,00719.18918,W,193015.20,A,A*66
$GNGLL,5243.35356,N,00719.18911,W,193015.40,A,A*67
$GNGLL,5243.35364,N,00719.18904,W,193015.60,A,A*60
$GNGLL,5243.35369,N,00719.18900,W,193015.80,A,A*67
$GNGLL,5243.35375,N,00719.18892,W,193016.00,A,A*6B
$GNGLL,5243.35380,N,00719.18883,W,193016.20,A,A*63
$GNGLL,5243.35386,N,00719.18875,W,193016.40,A,A*6A
$GNGLL,5243.35392,N,00719.18867,W,193016.60,A,A*6E
$GNGLL,5243.35397,N,00719.18856,W,193016.80,A,A*67
$GNGLL,5243.35402,N,00719.18848,W,193017.00,A,A*6A
$GNGLL,5243.35405,N,00719.18836,W,193017.20,A,A*66
$GNGLL,5243.35409,N,00719.18825,W,193017.40,A,A*6E
$GNGLL,5243.35410,N,00719.18809,W,193017.60,A,A*6A
$GNGLL,5243.35411,N,00719.18796,W,193017.80,A,A*6C
$GNGLL,5243.35412,N,00719.18783,W,193018.00,A,A*6C
$GNGLL,5243.35409,N,00719.18767,W,193018.20,A,A*6E
$GNGLL,5243.35407,N,00719.18754,W,193018.40,A,A*66
$GNGLL,5243.35404,N,00719.18741,W,193018.60,A,A*63
$GNGLL,5243.35401,N,00719.18730,W,193018.80,A,A*6E
$GNGLL,5243.35398,N,00719.18717,W,193019.00,A,A*65
$GNGLL,5243.35393,N,00719.18706,W,193019.20,A,A*6C
$GNGLL,5243.35386,N,00719.18691,W,193019.40,A,A*61
$GNGLL,5243.35380,N,00719.18678,W,193019.60,A,A*62
$GNGLL,5243.35375,N,00719.18665,W,193019.80,A,A*6A
$GNGLL,5243.35372,N,00719.18653,W,193020.00,A,A*6A
$GNGLL,5243.35368,N,00719.18641,W,193020.20,A,A*60
$GNGLL,5243.35363,N,00719.18629,W,193020.40,A,A*63
$GNGLL,5243.35358,N,00719.18616,W,193020.60,A,A*65
$GNGLL,5243.35353,N,00719.18602,W,193020.80,A,A*65
$GNGLL,5243.35349,N,00719.18590,W,193021.00,A,A*6F
$GNGLL,5243.35345,N,00719.18578,W,193021.20,A,A*67
$GNGLL,5243.35341,N,00719.18567,W,193021.40,A,A*6B
$GNGLL,5243.35336,N,00719.18554,W,193021.60,A,A*69
$GNGLL,5243.35331,N,00719.18541,W,193021.80,A,A*64
$GNGLL,5243.35326,N,00719.18526,W,193022.00,A,A*68
$GNGLL,5243.35322,N,00719.18512,W,193022.20,A,A*69
$GNGLL,5243.35318,N,00719.18500,W,193022.40,A,A*65
$GNGLL,5243.35314,N,00719.18487,W,193022.60,A,A*65
$GNGLL,5243.35308,N,00719.18473,W,193022.80,A,A*6D
$GNGLL,5243.35301,N,00719.18458,W,193023.00,A,A*64
$GNGLL,5243.35296,N,00719.18444,W,193023.20,A,A*64
$GNGLL,5243.35292,N,00719.18431,W,193023.40,A,A*64
$GNGLL,5243.35287,N,00719.18420,W,193023.60,A,A*62
$GNGLL,5243.35281,N,00719.18407,W,193023.80,A,A*6F
$GNGLL,5243.35274,N,00719.18395,W,193024.00,A,A*66
$GNGLL,5243.35267,N,00719.18381,W,193024.20,A,A*63
$GNGLL,5243.35261,N,00719.18368,W,193024.40,A,A*64
$GNGLL,5243.35253,N,00719.18354,W,193024.60,A,A*68
$GNGLL,5243.35246,N,00719.18340,W,193024.80,A,A*67
$GNGLL,5243.35239,N,00719.18326,W,193025.00,A,A*66
$GNGLL,5243.35232,N,00719.18311,W,193025.20,A,A*6B
$GNGLL,5243.35226,N,00719.18297,W,193025.40,A,A*67
$GNGLL,5243.35219,N,00719.18284,W,193025.60,A,A*6B
$GNGLL,5243.35213,N,00719.18273,W,193025.80,A,A*67
$GNGLL,5243.35207,N,00719.18261,W,193026.00,A,A*6A
$GNGLL,5243.35200,N,00719.18246,W,193026.20,A,A*6A
$GNGLL,5243.35194,N,00719.18234,W,193026.40,A,A*67
$GNGLL,5243.35188,N,00719.18220,W,193026.60,A,A*6D
$GNGLL,5243.35182,N,00719.18209,W,193026.80,A,A*62
$GNGLL,5243.35176,N,00719.18197,W,193027.00,A,A*64
$GNGLL,5243.35170,N,00719.18182,W,193027.20,A,A*64
$GNGLL,5243.35163,N,00719.18167,W,193027.40,A,A*6B
$GNGLL,5243.35156,N,00719.18152,W,193027.60,A,A*69
$GNGLL,5243.35150,N,00719.18140,W,193027.80,A,A*62
$GNGLL,5243.35144,N,00719.18126,W,193028.00,A,A*60
$GNGLL,5243.35136,N,00719.18113,W,193028.20,A,A*61
$GNGLL,5243.35130,N,00719.18099,W,193028.40,A,A*62
$GNGLL,5243.35123,N,00719.18085,W,193028.60,A,A*6F
$GNGLL,5243.35116,N,00719.18070,W,193028.80,A,A*6D
$GNGLL,5243.35109,N,00719.18057,W,193029.00,A,A*6F
$GNGLL,5243.35101,N,00719.18044,W,193029.20,A,A*67
$GNGLL,5243.35093,N,00719.18030,W,193029.40,A,A*68
$GNGLL,5243.35086,N,00719.18014,W,193029.60,A,A*68
$GNGLL,5243.35080,N,00719.17999,W,193029.80,A,A*63
$GNGLL,5243.35073,N,00719.17985,W,193030.00,A,A*62
$GNGLL,5243.35065,N,00719.17971,W,193030.20,A,A*6C
$GNGLL,5243.35057,N,00719.17957,W,193030.40,A,A*6F
$GNGLL,5243.35049,N,00719.17941,W,193030.60,A,A*65
$GNGLL,5243.35040,N,00719.17925,W,193030.80,A,A*60
$GNGLL,5243.35032,N,00719.17911,W,193031.00,A,A*6B
$GNGLL,5243.35024,N,00719.17897,W,193031.20,A,A*61
$GNGLL,5243.35017,N,00719.17885,W,193031.40,A,A*64
$GNGLL,5243.35008,N,00719.17873,W,193031.60,A,A*61
$GNGLL,5243.35001,N,00719.17862,W,193031.80,A,A*66
$GNGLL,5243.34994,N,00719.17852,W,193032.00,A,A*6A
$GNGLL,5243.34985,N,00719.17844,W,193032.20,A,A*6F
$GNGLL,5243.34977,N,00719.17838,W,193032.40,A,A*6F
$GNGLL,5243.34969,N,00719.17834,W,193032.60,A,A*6E
$GNGLL,5243.34960,N,00719.17831,W,193032.80,A,A*6C
$GNGLL,5243.34951,N,00719.17828,W,193033.00,A,A*6F
$GNGLL,5243.34943,N,00719.17826,W,193033.20,A,A*60
$GNGLL,5243.34935,N,00719.17825,W,193033.40,A,A*64
$GNGLL,5243.34925,N,00719.17829,W,193033.60,A,A*6B
$GNGLL,5243.34917,N,00719.17834,W,193033.80,A,A*68
$GNGLL,5243.34907,N,00719.17838,W,193034.00,A,A*6A
$GNGLL,5243.34900,N,00719.17841,W,193034.20,A,A*61
$GNGLL,5243.34894,N,00719.17844,W,193034.40,A,A*6E
$GNGLL,5243.34888,N,00719.17848,W,193034.60,A,A*6D
$GNGLL,5243.34883,N,00719.17856,W,193034.80,A,A*67
$GNGLL,5243.34876,N,00719.17861,W,193035.00,A,A*60
$GNGLL,5243.34869,N,00719.17867,W,193035.20,A,A*6A
$GNGLL,5243.34860,N,00719.17876,W,193035.40,A,A*65
$GNGLL,5243.34855,N,00719.17882,W,193035.60,A,A*6A
$GNGLL,5243.34849,N,00719.17891,W,193035.80,A,A*6B
$GNGLL,5243.34842,N,00719.17900,W,193036.00,A,A*62
$GNGLL,5243.34835,N,00719.17908,W,193036.20,A,A*68
$GNGLL,5243.34829,N,00719.17915,W,193036.40,A,A*6F
$GNGLL,5243.34822,N,00719.17923,W,193036.60,A,A*63
$GNGLL,5243.34817,N,00719.17933,W,193036.80,A,A*6A
$GNGLL,5243.34812,N,00719.17946,W,193037.00,A,A*64
$GNGLL,5243.34806,N,00719.17956,W,193037.20,A,A*62
$GNGLL,5243.34802,N,00719.17965,W,193037.40,A,A*60
$GNGLL,5243.34798,N,00719.17973,W,193037.60,A,A*69
$GNGLL,5243.34795,N,00719.17981,W,193037.80,A,A*67
$GNGLL,5243.34794,N,00719.17994,W,193038.00,A,A*65
$GNGLL,5243.34791,N,00719.18005,W,193038.20,A,A*6C
$GNGLL,5243.34789,N,00719.18016,W,193038.40,A,A*61
$GNGLL,5243.34787,N,00719.18028,W,193038.60,A,A*60
$GNGLL,5243.34788,N,00719.18039,W,193038.80,A,A*61
$GNGLL,5243.34789,N,00719.18052,W,193039.00,A,A*64
$GNGLL,5243.34791,N,00719.18066,W,193039.20,A,A*68
$GNGLL,5243.34792,N,00719.18080,W,193039.40,A,A*65
$GNGLL,5243.34793,N,00719.18094,W,193039.60,A,A*63
$GNGLL,5243.34795,N,00719.18110,W,193039.80,A,A*66
$GNGLL,5243.34796,N,00719.18120,W,193040.00,A,A*60
$GNGLL,5243.34799,N,00719.18132,W,193040.20,A,A*6E
$GNGLL,5243.34802,N,00719.18145,W,193040.40,A,A*65
$GNGLL,5243.34805,N,00719.18157,W,193040.60,A,A*63
$GNGLL,5243.34808,N,00719.18170,W,193040.80,A,A*65
$GNGLL,5243.34812,N,00719.18179,W,193041.00,A,A*6E
$GNGLL,5243.34818,N,00719.18189,W,193041.20,A,A*69
$GNGLL,5243.34824,N,00719.18200,W,193041.40,A,A*62
$GNGLL,5243.34829,N,00719.18212,W,193041.60,A,A*6E
$GNGLL,5243.34836,N,00719.18226,W,193041.80,A,A*69
$GNGLL,5243.34842,N,00719.18237,W,193042.00,A,A*61
$GNGLL,5243.34850,N,00719.18247,W,193042.20,A,A*67
$GNGLL,5243.34858,N,00719.18257,W,193042.40,A,A*68
$GNGLL,5243.34864,N,00719.18268,W,193042.60,A,A*69
$GNGLL,5243.34871,N,00719.18280,W,193042.80,A,A*65
$GNGLL,5243.34878,N,00719.18290,W,193043.00,A,A*64
$GNGLL,5243.34884,N,00719.18299,W,193043.20,A,A*6C
$GNGLL,5243.34891,N,00719.18308,W,193043.40,A,A*67
$GNGLL,5243.34899,N,00719.18319,W,193043.60,A,A*6D
$GNGLL,5243.34907,N,00719.18329,W,193043.80,A,A*66
$GNGLL,5243.34914,N,00719.18339,W,193044.00,A,A*6A
$GNGLL,5243.34920,N,00719.18349,W,193044.20,A,A*68
$GNGLL,5243.34928,N,00719.18359,W,193044.40,A,A*67
$GNGLL,5243.34935,N,00719.18368,W,193044.60,A,A*6B
$GNGLL,5243.34942,N,00719.18378,W,193044.80,A,A*64
$GNGLL,5243.34948,N,00719.18390,W,193045.00,A,A*61
$GNGLL,5243.34953,N,00719.18401,W,193045.20,A,A*66
$GNGLL,5243.34959,N,00719.18411,W,193045.40,A,A*6B
$GNGLL,5243.34965,N,00719.18421,W,193045.60,A,A*65
$GNGLL,5243.34970,N,00719.18433,W,193045.80,A,A*6C
$GNGLL,5243.34976,N,00719.18445,W,193046.00,A,A*60
$GNGLL,5243.34982,N,00719.18457,W,193046.20,A,A*6A
$GNGLL,5243.34987,N,00719.18469,W,193046.40,A,A*64
$GNGLL,5243.34994,N,00719.18481,W,193046.60,A,A*62
$GNGLL,5243.35001,N,00719.18493,W,193046.80,A,A*6B
$GNGLL,5243.35006,N,00719.18506,W,193047.00,A,A*68
$GNGLL,5243.35012,N,00719.18519,W,193047.20,A,A*61
$GNGLL,5243.35018,N,00719.18533,W,193047.40,A,A*65
$GNGLL,5243.35024,N,00719.18542,W,193047.60,A,A*6E
$GNGLL,5243.35032,N,00719.18552,W,193047.80,A,A*66
$GNGLL,5243.35038,N,00719.18565,W,193048.00,A,A*6F
$GNGLL,5243.35045,N,00719.18577,W,193048.20,A,A*64
$GNGLL,5243.35053,N,00719.18588,W,193048.40,A,A*65
$GNGLL,5243.35060,N,00719.18598,W,193048.60,A,A*66
$GNGLL,5243.35067,N,00719.18608,W,193048.80,A,A*65
$GNGLL,5243.35077,N,00719.18621,W,193049.00,A,A*66
$GNGLL,5243.35084,N,00719.18637,W,193049.20,A,A*6F
$GNGLL,5243.35092,N,00719.18651,W,193049.40,A,A*6E
$GNGLL,5243.35098,N,00719.18663,W,193049.60,A,A*67
$GNGLL,5243.35105,N,00719.18674,W,193049.80,A,A*6A
$GNGLL,5243.35113,N,00719.18685,W,193050.00,A,A*63
$GNGLL,5243.35121,N,00719.18697,W,193050.20,A,A*63
$GNGLL,5243.35129,N,00719.18707,W,193050.40,A,A*65
$GNGLL,5243.35138,N,00719.18718,W,193050.60,A,A*69
$GNGLL,5243.35147,N,00719.18727,W,193050.80,A,A*63
$GNGLL,5243.35157,N,00719.18736,W,193051.00,A,A*6B
$GNGLL,5243.35168,N,00719.18745,W,193051.20,A,A*61
$GNGLL,5243.35179,N,00719.18755,W,193051.40,A,A*66
$GNGLL,5243.35188,N,00719.18763,W,193051.60,A,A*6F
$GNGLL,5243.35197,N,00719.18769,W,193051.80,A,A*65
$GNGLL,5243.35207,N,00719.18775,W,193052.00,A,A*69
$GNGLL,5243.35217,N,00719.18779,W,193052.20,A,A*66
$GNGLL,5243.35226,N,00719.18786,W,193052.40,A,A*62
$GNGLL,5243.35237,N,00719.18792,W,193052.60,A,A*65
$GNGLL,5243.35246,N,00719.18798,W,193052.80,A,A*67
$GNGLL,5243.35254,N,00719.18801,W,193053.00,A,A*62
$GNGLL,5243.35263,N,00719.18801,W,193053.20,A,A*64
$GNGLL,5243.35271,N,00719.18801,W,193053.40,A,A*61
$GNGLL,5243.35280,N,00719.18801,W,193053.60,A,A*6D
$GNGLL,5243.35290,N,00719.18798,W,193053.80,A,A*6D
$GNGLL,5243.35298,N,00719.18794,W,193054.00,A,A*66
$GNGLL,5243.35307,N,00719.18788,W,193054.20,A,A*6E
$GNGLL,5243.35316,N,00719.18781,W,193054.40,A,A*61
$GNGLL,5243.35325,N,00719.18776,W,193054.60,A,A*6B
$GNGLL,5243.35334,N,00719.18772,W,193054.80,A,A*61
$GNGLL,5243.35341,N,00719.18768,W,193055.00,A,A*61
$GNGLL,5243.35347,N,00719.18762,W,193055.20,A,A*6F
$GNGLL,5243.35355,N,00719.18756,W,193055.40,A,A*6D
$GNGLL,5243.35363,N,00719.18750,W,193055.60,A,A*6C
$GNGLL,5243.35370,N,00719.18743,W,193055.80,A,A*62
$GNGLL,5243.35378,N,00719.18738,W,193056.00,A,A*6D
$GNGLL,5243.35384,N,00719.18731,W,193056.20,A,A*65
$GNGLL,5243.35390,N,00719.18723,W,193056.40,A,A*65
$GNGLL,5243.35395,N,00719.18714,W,193056.60,A,A*66
$GNGLL,5243.35401,N,00719.18703,W,193056.80,A,A*64
$GNGLL,5243.35406,N,00719.18692,W,193057.00,A,A*63
$GNGLL,5243.35411,N,00719.18681,W,193057.20,A,A*65
$GNGLL,5243.35414,N,00719.18670,W,193057.40,A,A*68
$GNGLL,5243.35415,N,00719.18657,W,193057.60,A,A*6E
$GNGLL,5243.35418,N,00719.18644,W,193057.80,A,A*6F
$GNGLL,5243.35419,N,00719.18629,W,193058.00,A,A*62
$GNGLL,5243.35420,N,00719.18614,W,193058.20,A,A*64
$GNGLL,5243.35418,N,00719.18602,W,193058.40,A,A*6E
$GNGLL,5243.35414,N,00719.18588,W,193058.60,A,A*61
$GNGLL,5243.35412,N,00719.18577,W,193058.80,A,A*69
$GNGLL,5243.35407,N,00719.18565,W,193059.00,A,A*67
$GNGLL,5243.35404,N,00719.18554,W,193059.20,A,A*64
$GNGLL,5243.35400,N,00719.18543,W,193059.40,A,A*60
$GNGLL,5243.35395,N,00719.18531,W,193059.60,A,A*6C
$GNGLL,5243.35389,N,00719.18517,W,193059.80,A,A*6B
$GNGLL,5243.35384,N,00719.18506,W,193100.00,A,A*63
$GNGLL,5243.35380,N,00719.18493,W,193100.20,A,A*68
$GNGLL,5243.35375,N,00719.18482,W,193100.40,A,A*64
$GNGLL,5243.35369,N,00719.18471,W,193100.60,A,A*67
$GNGLL,5243.35363,N,00719.18460,W,193100.80,A,A*63
$GNGLL,5243.35357,N,00719.18448,W,193101.00,A,A*67
$GNGLL,5243.35351,N,00719.18436,W,193101.20,A,A*6A
$GNGLL,5243.35345,N,00719.18423,W,193101.40,A,A*6D
$GNGLL,5243.35339,N,00719.18413,W,193101.60,A,A*67
$GNGLL,5243.35332,N,00719.18401,W,193101.80,A,A*61
$GNGLL,5243.35325,N,00719.18387,W,193102.00,A,A*65
$GNGLL,5243.35319,N,00719.18373,W,193102.20,A,A*63
$GNGLL,5243.35313,N,00719.18359,W,193102.40,A,A*67
$GNGLL,5243.35306,N,00719.18347,W,193102.60,A,A*6E
$GNGLL,5243.35300,N,00719.18335,W,193102.80,A,A*63
$GNGLL,5243.35293,N,00719.18322,W,193103.00,A,A*67
$GNGLL,5243.35287,N,00719.18309,W,193103.20,A,A*69
$GNGLL,5243.35279,N,00719.18297,W,193103.40,A,A*68
$GNGLL,5243.35273,N,00719.18285,W,193103.60,A,A*63
$GNGLL,5243.35267,N,00719.18272,W,193103.80,A,A*60
$GNGLL,5243.35261,N,00719.18260,W,193104.00,A,A*6A
$GNGLL,5243.35252,N,00719.18245,W,193104.20,A,A*6F
$GNGLL,5243.35245,N,00719.18231,W,193104.40,A,A*6C
$GNGLL,5243.35238,N,00719.18217,W,193104.60,A,A*60
$GNGLL,5243.35232,N,00719.18203,W,193104.80,A,A*61
$GNGLL,5243.35225,N,00719.18191,W,193105.00,A,A*66
$GNGLL,5243.35217,N,00719.18178,W,193105.20,A,A*62
$GNGLL,5243.35210,N,00719.18164,W,193105.40,A,A*6E
$GNGLL,5243.35203,N,00719.18152,W,193105.60,A,A*6B
$GNGLL,5243.35196,N,00719.18138,W,193105.80,A,A*66
$GNGLL,5243.35189,N,00719.18127,W,193106.00,A,A*6D
$GNGLL,5243.35183,N,00719.18115,W,193106.20,A,A*64
$GNGLL,5243.35176,N,00719.18100,W,193106.40,A,A*6C
$GNGLL,5243.35167,N,00719.18087,W,193106.60,A,A*60
$GNGLL,5243.35160,N,00719.18073,W,193106.80,A,A*62
$GNGLL,5243.35153,N,00719.18062,W,193107.00,A,A*6B
$GNGLL,5243.35145,N,00719.18050,W,193107.20,A,A*6F
$GNGLL,5243.35136,N,00719.18038,W,193107.40,A,A*63
$GNGLL,5243.35127,N,00719.18024,W,193107.60,A,A*6C
$GNGLL,5243.35119,N,00719.18009,W,193107.80,A,A*60
$GNGLL,5243.35111,N,00719.17996,W,193108.00,A,A*6F
$GNGLL,5243.35103,N,00719.17983,W,193108.20,A,A*6A
$GNGLL,5243.35096,N,00719.17969,W,193108.40,A,A*65
$GNGLL,5243.35090,N,00719.17954,W,193108.60,A,A*6F
$GNGLL,5243.35082,N,00719.17939,W,193108.80,A,A*69
$GNGLL,5243.35074,N,00719.17923,W,193109.00,A,A*62
$GNGLL,5243.35068,N,00719.17909,W,193109.20,A,A*65
$GNGLL,5243.35060,N,00719.17895,W,193109.40,A,A*6F
$GNGLL,5243.35053,N,00719.17879,W,193109.60,A,A*6F
$GNGLL,5243.35044,N,00719.17863,W,193109.80,A,A*6C
$GNGLL,5243.35036,N,00719.17846,W,193110.00,A,A*6E
$GNGLL,5243.35028,N,00719.17831,W,193110.20,A,A*63
$GNGLL,5243.35020,N,00719.17817,W,193110.40,A,A*69
$GNGLL,5243.35010,N,00719.17802,W,193110.60,A,A*6C
$GNGLL,5243.35003,N,00719.17787,W,193110.80,A,A*62
$GNGLL,5243.34995,N,00719.17774,W,193111.00,A,A*60
$GNGLL,5243.34988,N,00719.17761,W,193111.20,A,A*6A
$GNGLL,5243.34981,N,00719.17752,W,193111.40,A,A*65
$GNGLL,5243.34972,N,00719.17745,W,193111.60,A,A*6D
$GNGLL,5243.34964,N,00719.17738,W,193111.80,A,A*6E
$GNGLL,5243.34955,N,00719.17734,W,193112.00,A,A*6B
$GNGLL,5243.34946,N,00719.17731,W,193112.20,A,A*6E
$GNGLL,5243.34936,N,00719.17730,W,193112.40,A,A*6E
$GNGLL,5243.34928,N,00719.17731,W,193112.60,A,A*62
$GNGLL,5243.34918,N,00719.17738,W,193112.80,A,A*66
$GNGLL,5243.34908,N,00719.17741,W,193113.00,A,A*60
$GNGLL,5243.34899,N,00719.17745,W,193113.20,A,A*6F
$GNGLL,5243.34890,N,00719.17751,W,193113.40,A,A*65
$GNGLL,5243.34881,N,00719.17755,W,193113.60,A,A*63
$GNGLL,5243.34874,N,00719.17761,W,193113.80,A,A*60
$GNGLL,5243.34866,N,00719.17767,W,193114.00,A,A*6A
$GNGLL,5243.34856,N,00719.17773,W,193114.20,A,A*6E
$GNGLL,5243.34848,N,00719.17779,W,193114.40,A,A*6D
$GNGLL,5243.34839,N,00719.17786,W,193114.60,A,A*69
$GNGLL,5243.34830,N,00719.17795,W,193114.80,A,A*6C
$GNGLL,5243.34821,N,00719.17806,W,193115.00,A,A*60
$GNGLL,5243.34812,N,00719.17813,W,193115.20,A,A*66
$GNGLL,5243.34804,N,00719.17820,W,193115.40,A,A*67
$GNGLL,5243.34795,N,00719.17828,W,193115.60,A,A*6A
$GNGLL,5243.34786,N,00719.17836,W,193115.80,A,A*69
$GNGLL,5243.34779,N,00719.17847,W,193116.00,A,A*64
$GNGLL,5243.34771,N,00719.17859,W,193116.20,A,A*61
$GNGLL,5243.34762,N,00719.17867,W,193116.40,A,A*68
$GNGLL,5243.34754,N,00719.17877,W,193116.60,A,A*6E
$GNGLL,5243.34746,N,00719.17887,W,193116.80,A,A*6C
$GNGLL,5243.34739,N,00719.17898,W,193117.00,A,A*63
$GNGLL,5243.34733,N,00719.17910,W,193117.20,A,A*6A
$GNGLL,5243.34724,N,00719.17923,W,193117.40,A,A*6A
$GNGLL,5243.34717,N,00719.17934,W,193117.60,A,A*6E
$GNGLL,5243.34710,N,00719.17947,W,193117.80,A,A*63
$GNGLL,5243.34705,N,00719.17958,W,193118.00,A,A*6E
$GNGLL,5243.34699,N,00719.17971,W,193118.20,A,A*63
$GNGLL,5243.34693,N,00719.17985,W,193118.40,A,A*64
$GNGLL,5243.34689,N,00719.17998,W,193118.60,A,A*61
$GNGLL,5243.34684,N,00719.18010,W,193118.80,A,A*64
$GNGLL,5243.34681,N,00719.18020,W,193119.00,A,A*6B
$GNGLL,5243.34678,N,00719.18033,W,193119.20,A,A*6D
$GNGLL,5243.34676,N,00719.18047,W,193119.40,A,A*66
$GNGLL,5243.34672,N,00719.18059,W,193119.60,A,A*6F
$GNGLL,5243.34669,N,00719.18070,W,193119.80,A,A*60
$GNGLL,5243.34666,N,00719.18083,W,193120.00,A,A*61
$GNGLL,5243.34664,N,00719.18095,W,193120.20,A,A*66
$GNGLL,5243.34663,N,00719.18108,W,193120.40,A,A*62
$GNGLL,5243.34662,N,00719.18122,W,193120.60,A,A*69
$GNGLL,5243.34661,N,00719.18134,W,193120.80,A,A*63
$GNGLL,5243.34661,N,00719.18147,W,193121.00,A,A*6E
$GNGLL,5243.34660,N,00719.18157,W,193121.20,A,A*6C
$GNGLL,5243.34663,N,00719.18167,W,193121.40,A,A*6A
$GNGLL,5243.34665,N,00719.18176,W,193121.60,A,A*6E
$GNGLL,5243.34666,N,00719.18186,W,193121.80,A,A*6C
$GNGLL,5243.34668,N,00719.18196,W,193122.00,A,A*68
$GNGLL,5243.34671,N,00719.18203,W,193122.20,A,A*6D
$GNGLL,5243.34673,N,00719.18207,W,193122.40,A,A*6D
$GNGLL,5243.34677,N,00719.18208,W,193122.60,A,A*64
$GNGLL,5243.34680,N,00719.18210,W,193122.80,A,A*6B
$GNGLL,5243.34682,N,00719.18211,W,193123.00,A,A*61
$GNGLL,5243.34683,N,00719.18212,W,193123.20,A,A*61
$GNGLL,5243.34684,N,00719.18211,W,193123.40,A,A*63
$GNGLL,5243.34684,N,00719.18209,W,193123.60,A,A*68
$GNGLL,5243.34683,N,00719.18206,W,193123.80,A,A*6E
$GNGLL,5243.34682,N,00719.18203,W,193124.00,A,A*65
$GNGLL,5243.34681,N,00719.18200,W,193124.20,A,A*67
$GNGLL,5243.34679,N,00719.18197,W,193124.40,A,A*6B
$GNGLL,5243.34676,N,00719.18191,W,193124.60,A,A*60
$GNGLL,5243.34671,N,00719.18184,W,193124.80,A,A*6D
$GNGLL,5243.34666,N,00719.18175,W,193125.00,A,A*6C
$GNGLL,5243.34660,N,00719.18165,W,193125.20,A,A*69
$GNGLL,5243.34654,N,00719.18154,W,193125.40,A,A*6A
$GNGLL,5243.34647,N,00719.18149,W,193125.60,A,A*66
$GNGLL,5243.34640,N,00719.18141,W,193125.80,A,A*67
$GNGLL,5243.34632,N,00719.18133,W,193126.00,A,A*6C
$GNGLL,5243.34626,N,00719.18125,W,193126.20,A,A*6C
$GNGLL,5243.34619,N,00719.18117,W,193126.40,A,A*67
$GNGLL,5243.34611,N,00719.18110,W,193126.60,A,A*6A
$GNGLL,5243.34603,N,00719.18102,W,193126.80,A,A*64
$GNGLL,5243.34595,N,00719.18094,W,193127.00,A,A*6F
$GNGLL,5243.34587,N,00719.18084,W,193127.20,A,A*6F
$GNGLL,5243.34579,N,00719.18074,W,193127.40,A,A*67
$GNGLL,5243.34570,N,00719.18064,W,193127.60,A,A*6D
$GNGLL,5243.34562,N,00719.18056,W,193127.80,A,A*61
$GNGLL,5243.34552,N,00719.18046,W,193128.00,A,A*64
$GNGLL,5243.34543,N,00719.18036,W,193128.20,A,A*61
$GNGLL,5243.34534,N,00719.18023,W,193128.40,A,A*63
$GNGLL,5243.34526,N,00719.18011,W,193128.60,A,A*63
$GNGLL,5243.34518,N,00719.18001,W,193128.80,A,A*61
$GNGLL,5243.34510,N,00719.17990,W,193129.00,A,A*6E
$GNGLL,5243.34501,N,00719.17978,W,193129.20,A,A*6A
$GNGLL,5243.34494,N,00719.17966,W,193129.40,A,A*6E
$GNGLL,5243.34487,N,00719.17953,W,193129.60,A,A*68
$GNGLL,5243.34481,N,00719.17941,W,193129.80,A,A*63
$GNGLL,5243.34473,N,00719.17928,W,193130.00,A,A*61
$GNGLL,5243.34466,N,00719.17916,W,193130.20,A,A*6A
$GNGLL,5243.34458,N,00719.17903,W,193130.40,A,A*65
$GNGLL,5243.34451,N,00719.17890,W,193130.60,A,A*65
$GNGLL,5243.34445,N,00719.17878,W,193130.80,A,A*68
$GNGLL,5243.34436,N,00719.17865,W,193131.00,A,A*69
$GNGLL,5243.34427,N,00719.17851,W,193131.20,A,A*6C
$GNGLL,5243.34419,N,00719.17836,W,193131.40,A,A*66
$GNGLL,5243.34411,N,00719.17819,W,193131.60,A,A*61
$GNGLL,5243.34404,N,00719.17803,W,193131.80,A,A*60
$GNGLL,5243.34398,N,00719.17792,W,193132.00,A,A*6E
$GNGLL,5243.34390,N,00719.17777,W,193132.20,A,A*6F
$GNGLL,5243.34382,N,00719.17761,W,193132.40,A,A*6D
$GNGLL,5243.34377,N,00719.17746,W,193132.60,A,A*60
$GNGLL,5243.34370,N,00719.17732,W,193132.80,A,A*6A
$GNGLL,5243.34364,N,00719.17718,W,193133.00,A,A*6E
$GNGLL,5243.34358,N,00719.17702,W,193133.20,A,A*68
$GNGLL,5243.34350,N,00719.17687,W,193133.40,A,A*6A
$GNGLL,5243.34343,N,00719.17672,W,193133.60,A,A*60
$GNGLL,5243.34336,N,00719.17657,W,193133.80,A,A*6B
$GNGLL,5243.34330,N,00719.17643,W,193134.00,A,A*67
$GNGLL,5243.34323,N,00719.17628,W,193134.20,A,A*6A
$GNGLL,5243.34316,N,00719.17612,W,193134.40,A,A*63
$GNGLL,5243.34311,N,00719.17594,W,193134.60,A,A*6B
$GNGLL,5243.34307,N,00719.17577,W,193134.80,A,A*6F
$GNGLL,5243.34302,N,00719.17559,W,193135.00,A,A*6F
$GNGLL,5243.34297,N,00719.17545,W,193135.20,A,A*6D
$GNGLL,5243.34292,N,00719.17528,W,193135.40,A,A*65
$GNGLL,5243.34286,N,00719.17511,W,193135.60,A,A*68
$GNGLL,5243.34283,N,00719.17492,W,193135.80,A,A*69
$GNGLL,5243.34280,N,00719.17475,W,193136.00,A,A*68
$GNGLL,5243.34277,N,00719.17457,W,193136.20,A,A*62
$GNGLL,5243.34273,N,00719.17438,W,193136.40,A,A*69
$GNGLL,5243.34270,N,00719.17416,W,193136.60,A,A*64
$GNGLL,5243.34269,N,00719.17397,W,193136.80,A,A*6C
$GNGLL,5243.34267,N,00719.17377,W,193137.00,A,A*65
$GNGLL,5243.34266,N,00719.17359,W,193137.20,A,A*6A
$GNGLL,5243.34264,N,00719.17341,W,193137.40,A,A*67
$GNGLL,5243.34262,N,00719.17321,W,193137.60,A,A*65
$GNGLL,5243.34262,N,00719.17301,W,193137.80,A,A*69
$GNGLL,5243.34263,N,00719.17280,W,193138.00,A,A*67
$GNGLL,5243.34263,N,00719.17262,W,193138.20,A,A*69
$GNGLL,5243.34263,N,00719.17244,W,193138.40,A,A*6B
$GNGLL,5243.34262,N,00719.17226,W,193138.60,A,A*6C
$GNGLL,5243.34261,N,00719.17207,W,193138.80,A,A*62
$GNGLL,5243.34264,N,00719.17188,W,193139.00,A,A*6A
$GNGLL,5243.34266,N,00719.17170,W,193139.20,A,A*6D
$GNGLL,5243.34267,N,00719.17151,W,193139.40,A,A*69
$GNGLL,5243.34268,N,00719.17132,W,193139.60,A,A*61
$GNGLL,5243.34269,N,00719.17113,W,193139.80,A,A*6D
$GNGLL,5243.34272,N,00719.17093,W,193140.00,A,A*68
$GNGLL,5243.34275,N,00719.17072,W,193140.20,A,A*62
$GNGLL,5243.34278,N,00719.17053,W,193140.40,A,A*6A
$GNGLL,5243.34281,N,00719.17034,W,193140.60,A,A*6F
$GNGLL,5243.34283,N,00719.17016,W,193140.80,A,A*63
$GNGLL,5243.34286,N,00719.16998,W,193141.00,A,A*61
$GNGLL,5243.34289,N,00719.16980,W,193141.20,A,A*65
$GNGLL,5243.34292,N,00719.16964,W,193141.40,A,A*63
$GNGLL,5243.34293,N,00719.16947,W,193141.60,A,A*61
$GNGLL,5243.34295,N,00719.16929,W,193141.80,A,A*61
$GNGLL,5243.34297,N,00719.16909,W,193142.00,A,A*6A
$GNGLL,5243.34302,N,00719.16891,W,193142.20,A,A*65
$GNGLL,5243.34305,N,00719.16872,W,193142.40,A,A*69
$GNGLL,5243.34308,N,00719.16855,W,193142.60,A,A*63
$GNGLL,5243.34310,N,00719.16836,W,193142.80,A,A*61
$GNGLL,5243.34312,N,00719.16816,W,193143.00,A,A*68
$GNGLL,5243.34316,N,00719.16798,W,193143.20,A,A*67
$GNGLL,5243.34320,N,00719.16778,W,193143.40,A,A*6A
$GNGLL,5243.34324,N,00719.16762,W,193143.60,A,A*67
$GNGLL,5243.34327,N,00719.16744,W,193143.80,A,A*6E
$GNGLL,5243.34330,N,00719.16726,W,193144.00,A,A*63
$GNGLL,5243.34334,N,00719.16707,W,193144.20,A,A*66
$GNGLL,5243.34338,N,00719.16687,W,193144.40,A,A*65
$GNGLL,5243.34342,N,00719.16669,W,193144.60,A,A*6A
$GNGLL,5243.34345,N,00719.16651,W,193144.80,A,A*68
$GNGLL,5243.34348,N,00719.16632,W,193145.00,A,A*69
$GNGLL,5243.34351,N,00719.16613,W,193145.20,A,A*60
$GNGLL,5243.34354,N,00719.16594,W,193145.40,A,A*6F
$GNGLL,5243.34357,N,00719.16576,W,193145.60,A,A*62
$GNGLL,5243.34360,N,00719.16558,W,193145.80,A,A*64
$GNGLL,5243.34363,N,00719.16538,W,193146.00,A,A*6A
$GNGLL,5243.34366,N,00719.16518,W,193146.20,A,A*6F
$GNGLL,5243.34369,N,00719.16499,W,193146.40,A,A*6E
$GNGLL,5243.34372,N,00719.16479,W,193146.60,A,A*68
$GNGLL,5243.34374,N,00719.16460,W,193146.80,A,A*68
$GNGLL,5243.34375,N,00719.16441,W,193147.00,A,A*63
$GNGLL,5243.34377,N,00719.16420,W,193147.20,A,A*64
$GNGLL,5243.34378,N,00719.16399,W,193147.40,A,A*68
$GNGLL,5243.34380,N,00719.16377,W,193147.60,A,A*6D
$GNGLL,5243.34382,N,00719.16356,W,193147.80,A,A*62
$GNGLL,5243.34385,N,00719.16336,W,193148.00,A,A*64
$GNGLL,5243.34387,N,00719.16313,W,193148.20,A,A*63
$GNGLL,5243.34389,N,00719.16289,W,193148.40,A,A*69
$GNGLL,5243.34392,N,00719.16268,W,193148.60,A,A*6E
$GNGLL,5243.34395,N,00719.16243,W,193148.80,A,A*6E
$GNGLL,5243.34397,N,00719.16221,W,193149.00,A,A*61
$GNGLL,5243.34397,N,00719.16201,W,193149.20,A,A*61
$GNGLL,5243.34399,N,00719.16176,W,193149.40,A,A*6A
$GNGLL,5243.34402,N,00719.16150,W,193149.60,A,A*69
$GNGLL,5243.34406,N,00719.16123,W,193149.80,A,A*67
$GNGLL,5243.34410,N,00719.16098,W,193150.00,A,A*61
$GNGLL,5243.34413,N,00719.16074,W,193150.20,A,A*62
$GNGLL,5243.34416,N,00719.16050,W,193150.40,A,A*67
$GNGLL,5243.34418,N,00719.16026,W,193150.60,A,A*6A
$GNGLL,5243.34421,N,00719.16004,W,193150.80,A,A*6E
$GNGLL,5243.34424,N,00719.15982,W,193151.00,A,A*66
$GNGLL,5243.34426,N,00719.15962,W,193151.20,A,A*68
$GNGLL,5243.34429,N,00719.15941,W,193151.40,A,A*60
$GNGLL,5243.34431,N,00719.15919,W,193151.60,A,A*66
$GNGLL,5243.34434,N,00719.15900,W,193151.80,A,A*65
$GNGLL,5243.34438,N,00719.15880,W,193152.00,A,A*6B
$GNGLL,5243.34441,N,00719.15861,W,193152.20,A,A*68
$GNGLL,5243.34444,N,00719.15842,W,193152.40,A,A*6A
$GNGLL,5243.34448,N,00719.15824,W,193152.60,A,A*64
$GNGLL,5243.34449,N,00719.15805,W,193152.80,A,A*68
$GNGLL,5243.34453,N,00719.15789,W,193153.00,A,A*61
$GNGLL,5243.34456,N,00719.15771,W,193153.20,A,A*61
$GNGLL,5243.34456,N,00719.15755,W,193153.40,A,A*61
$GNGLL,5243.34457,N,00719.15738,W,193153.60,A,A*69
$GNGLL,5243.34456,N,00719.15721,W,193153.80,A,A*6E
$GNGLL,5243.34458,N,00719.15706,W,193154.00,A,A*6A
$GNGLL,5243.34460,N,00719.15690,W,193154.20,A,A*6D
$GNGLL,5243.34461,N,00719.15674,W,193154.40,A,A*60
$GNGLL,5243.34462,N,00719.15660,W,193154.60,A,A*64
$GNGLL,5243.34464,N,00719.15643,W,193154.80,A,A*6D
$GNGLL,5243.34467,N,00719.15628,W,193155.00,A,A*6A
$GNGLL,5243.34471,N,00719.15614,W,193155.20,A,A*60
$GNGLL,5243.34475,N,00719.15600,W,193155.40,A,A*67
$GNGLL,5243.34479,N,00719.15587,W,193155.60,A,A*65
$GNGLL,5243.34484,N,00719.15574,W,193155.80,A,A*65
$GNGLL,5243.34488,N,00719.15560,W,193156.00,A,A*67
$GNGLL,5243.34493,N,00719.15548,W,193156.20,A,A*65
$GNGLL,5243.34497,N,00719.15535,W,193156.40,A,A*6D
$GNGLL,5243.34502,N,00719.15522,W,193156.60,A,A*64
$GNGLL,5243.34507,N,00719.15508,W,193156.80,A,A*67
$GNGLL,5243.34513,N,00719.15494,W,193157.00,A,A*6F
$GNGLL,5243.34518,N,00719.15481,W,193157.20,A,A*62
$GNGLL,5243.34523,N,00719.15466,W,193157.40,A,A*65
$GNGLL,5243.34526,N,00719.15451,W,193157.60,A,A*66
$GNGLL,5243.34530,N,00719.15437,W,193157.80,A,A*6F
$GNGLL,5243.34534,N,00719.15422,W,193158.00,A,A*68
$GNGLL,5243.34537,N,00719.15406,W,193158.20,A,A*6F
$GNGLL,5243.34540,N,00719.15391,W,193158.40,A,A*60
$GNGLL,5243.34542,N,00719.15377,W,193158.60,A,A*68
$GNGLL,5243.34543,N,00719.15362,W,193158.80,A,A*63
$GNGLL,5243.34543,N,00719.15348,W,193159.00,A,A*62
$GNGLL,5243.34544,N,00719.15333,W,193159.20,A,A*6B
$GNGLL,5243.34543,N,00719.15319,W,193159.40,A,A*62
$GNGLL,5243.34544,N,00719.15304,W,193159.60,A,A*6B
$GNGLL,5243.34545,N,00719.15291,W,193159.80,A,A*69
$GNGLL,5243.34547,N,00719.15277,W,193200.00,A,A*64
$GNGLL,5243.34548,N,00719.15265,W,193200.20,A,A*6A
$GNGLL,5243.34549,N,00719.15252,W,193200.40,A,A*69
$GNGLL,5243.34550,N,00719.15239,W,193200.60,A,A*6E
$GNGLL,5243.34551,N,00719.15226,W,193200.80,A,A*6F
$GNGLL,5243.34552,N,00719.15213,W,193201.00,A,A*63
$GNGLL,5243.34553,N,00719.15200,W,193201.20,A,A*62
$GNGLL,5243.34553,N,00719.15187,W,193201.40,A,A*68
$GNGLL,5243.34554,N,00719.15175,W,193201.60,A,A*60
$GNGLL,5243.34556,N,00719.15162,W,193201.80,A,A*6A
$GNGLL,5243.34556,N,00719.15151,W,193202.00,A,A*61
$GNGLL,5243.34556,N,00719.15141,W,193202.20,A,A*62
$GNGLL,5243.34557,N,00719.15128,W,193202.40,A,A*6A
$GNGLL,5243.34558,N,00719.15115,W,193202.60,A,A*69
$GNGLL,5243.34558,N,00719.15104,W,193202.80,A,A*67
$GNGLL,5243.34559,N,00719.15093,W,193203.00,A,A*60
$GNGLL,5243.34559,N,00719.15079,W,193203.20,A,A*66
$GNGLL,5243.34560,N,00719.15065,W,193203.40,A,A*67
$GNGLL,5243.34561,N,00719.15052,W,193203.60,A,A*60
$GNGLL,5243.34561,N,00719.15038,W,193203.80,A,A*62
$GNGLL,5243.34562,N,00719.15025,W,193204.00,A,A*62
$GNGLL,5243.34563,N,00719.15011,W,193204.20,A,A*66
$GNGLL,5243.34564,N,00719.14997,W,193204.40,A,A*61
$GNGLL,5243.34565,N,00719.14983,W,193204.60,A,A*67
$GNGLL,5243.34566,N,00719.14969,W,193204.80,A,A*6E
$GNGLL,5243.34567,N,00719.14955,W,193205.00,A,A*69
$GNGLL,5243.34567,N,00719.14942,W,193205.20,A,A*6D
$GNGLL,5243.34567,N,00719.14927,W,193205.40,A,A*68
$GNGLL,5243.34568,N,00719.14913,W,193205.60,A,A*62
$GNGLL,5243.34568,N,00719.14899,W,193205.80,A,A*6F
$GNGLL,5243.34569,N,00719.14886,W,193206.00,A,A*6B
$GNGLL,5243.34569,N,00719.14872,W,193206.20,A,A*62
$GNGLL,5243.34569,N,00719.14857,W,193206.40,A,A*63
$GNGLL,5243.34570,N,00719.14843,W,193206.60,A,A*6C
$GNGLL,5243.34571,N,00719.14830,W,193206.80,A,A*67
$GNGLL,5243.34571,N,00719.14816,W,193207.00,A,A*6A
$GNGLL,5243.34572,N,00719.14802,W,193207.20,A,A*6E
$GNGLL,5243.34573,N,00719.14789,W,193207.40,A,A*65
$GNGLL,5243.34573,N,00719.14775,W,193207.60,A,A*64
$GNGLL,5243.34574,N,00719.14762,W,193207.80,A,A*6B
$GNGLL,5243.34575,N,00719.14749,W,193208.00,A,A*64
$GNGLL,5243.34575,N,00719.14735,W,193208.20,A,A*6D
$GNGLL,5243.34576,N,00719.14721,W,193208.40,A,A*6D
$GNGLL,5243.34577,N,00719.14707,W,193208.60,A,A*6A
$GNGLL,5243.34577,N,00719.14694,W,193208.80,A,A*6F
$GNGLL,5243.34578,N,00719.14681,W,193209.00,A,A*6D
$GNGLL,5243.34579,N,00719.14668,W,193209.20,A,A*69
$GNGLL,5243.34580,N,00719.14655,W,193209.40,A,A*67
$GNGLL,5243.34581,N,00719.14642,W,193209.60,A,A*62
$GNGLL,5243.34582,N,00719.14629,W,193209.80,A,A*62
$GNGLL,5243.34583,N,00719.14617,W,193210.00,A,A*6E
$GNGLL,5243.34584,N,00719.14604,W,193210.20,A,A*69
$GNGLL,5243.34586,N,00719.14592,W,193210.40,A,A*61
$GNGLL,5243.34586,N,00719.14581,W,193210.60,A,A*61
$GNGLL,5243.34588,N,00719.14569,W,193210.80,A,A*67
$GNGLL,5243.34589,N,00719.14558,W,193211.00,A,A*6D
$GNGLL,5243.34589,N,00719.14547,W,193211.20,A,A*61
$GNGLL,5243.34590,N,00719.14536,W,193211.40,A,A*69
$GNGLL,5243.34591,N,00719.14526,W,193211.60,A,A*6B
$GNGLL,5243.34592,N,00719.14515,W,193211.80,A,A*66
$GNGLL,5243.34593,N,00719.14504,W,193212.00,A,A*6C
$GNGLL,5243.34594,N,00719.14492,W,193212.20,A,A*67
$GNGLL,5243.34594,N,00719.14481,W,193212.40,A,A*63
$GNGLL,5243.34595,N,00719.14470,W,193212.60,A,A*6E
$GNGLL,5243.34595,N,00719.14459,W,193212.80,A,A*6B
$GNGLL,5243.34596,N,00719.14448,W,193213.00,A,A*61
$GNGLL,5243.34597,N,00719.14436,W,193213.20,A,A*6B
