$GNGNS,192817.00,5243.35117,N,00719.14681,W,AA,09,1.96,62.4,54.1,,*4D
$GNGGA,192817.00,5243.35117,N,00719.14681,W,1,09,1.96,62.4,M,54.1,M,,*67
$GNGLL,5243.35117,N,00719.14681,W,192817.00,A,A*65
$GNGNS,192817.20,5243.35117,N,00719.14680,W,AA,09,1.96,62.3,54.1,,*49
$GNGGA,192817.20,5243.35117,N,00719.14680,W,1,09,1.96,62.3,M,54.1,M,,*63
$GNGLL,5243.35117,N,00719.14680,W,192817.20,A,A*66
$GNGNS,192817.40,5243.35117,N,00719.14680,W,AA,09,1.96,62.3,54.1,,*4F
$GNGGA,192817.40,5243.35117,N,00719.14680,W,1,09,1.96,62.3,M,54.1,M,,*65
$GNGLL,5243.35117,N,00719.14680,W,192817.40,A,A*60
$GNGNS,192817.60,5243.35117,N,00719.14678,W,AA,09,1.96,62.3,54.1,,*4A
$GNGGA,192817.60,5243.35117,N,00719.14678,W,1,09,1.96,62.3,M,54.1,M,,*60
$GNGLL,5243.35117,N,00719.14678,W,192817.60,A,A*65
$GNGNS,192817.80,5243.35117,N,00719.14677,W,AA,09,1.96,62.3,54.1,,*4B
$GNGGA,192817.80,5243.35117,N,00719.14677,W,1,09,1.96,62.3,M,54.1,M,,*61
$GNGLL,5243.35117,N,00719.14677,W,192817.80,A,A*64
$GNGNS,192818.00,5243.35117,N,00719.14676,W,AA,09,1.97,62.3,54.1,,*4C
$GNGGA,192818.00,5243.35117,N,00719.14676,W,1,09,1.97,62.3,M,54.1,M,,*66
$GNGLL,5243.35117,N,00719.14676,W,192818.00,A,A*62
$GNGNS,192818.20,5243.35117,N,00719.14675,W,AA,09,1.97,62.3,54.1,,*4D
$GNGGA,192818.20,5243.35117,N,00719.14675,W,1,09,1.97,62.3,M,54.1,M,,*67
$GNGLL,5243.35117,N,00719.14675,W,192818.20,A,A*63
$GNGNS,192818.40,5243.35116,N,00719.14674,W,AA,09,1.97,62.3,54.1,,*4B
$GNGGA,192818.40,5243.35116,N,00719.14674,W,1,09,1.97,62.3,M,54.1,M,,*61
$GNGLL,5243.35116,N,00719.14674,W,192818.40,A,A*65
$GNGNS,192818.60,5243.35116,N,00719.14674,W,AA,09,1.97,62.3,54.1,,*49
$GNGGA,192818.60,5243.35116,N,00719.14674,W,1,09,1.97,62.3,M,54.1,M,,*63
$GNGLL,5243.35116,N,00719.14674,W,192818.60,A,A*67
$GNGNS,192818.80,5243.35116,N,00719.14673,W,AA,09,1.97,62.3,54.1,,*40
$GNGGA,192818.80,5243.35116,N,00719.14673,W,1,09,1.97,62.3,M,54.1,M,,*6A
$GNGLL,5243.35116,N,00719.14673,W,192818.80,A,A*6E
$GNGNS,192819.00,5243.35116,N,00719.14673,W,AA,09,1.97,62.2,54.1,,*48
$GNGGA,192819.00,5243.35116,N,00719.14673,W,1,09,1.97,62.2,M,54.1,M,,*62
$GNGLL,5243.35116,N,00719.14673,W,192819.00,A,A*67
$GNGNS,192819.20,5243.35116,N,00719.14672,W,AA,09,1.97,62.2,54.1,,*4B
$GNGGA,192819.20,5243.35116,N,00719.14672,W,1,09,1.97,62.2,M,54.1,M,,*61
$GNGLL,5243.35116,N,00719.14672,W,192819.20,A,A*64
$GNGNS,192819.40,5243.35116,N,00719.14672,W,AA,09,1.97,62.2,54.1,,*4D
$GNGGA,192819.40,5243.35116,N,00719.14672,W,1,09,1.97,62.2,M,54.1,M,,*67
$GNGLL,5243.35116,N,00719.14672,W,192819.40,A,A*62
$GNGNS,192819.60,5243.35116,N,00719.14672,W,AA,09,1.97,62.2,54.1,,*4F
$GNGGA,192819.60,5243.35116,N,00719.14672,W,1,09,1.97,62.2,M,54.1,M,,*65
$GNGLL,5243.35116,N,00719.14672,W,192819.60,A,A*60
$GNGNS,192819.80,5243.35117,N,00719.14672,W,AA,09,1.97,62.3,54.1,,*41
$GNGGA,192819.80,5243.35117,N,00719.14672,W,1,09,1.97,62.3,M,54.1,M,,*6B
$GNGLL,5243.35117,N,00719.14672,W,192819.80,A,A*6F
$GNGNS,192820.00,5243.35117,N,00719.14671,W,AA,09,1.97,62.3,54.1,,*40
$GNGGA,192820.00,5243.35117,N,00719.14671,W,1,09,1.97,62.3,M,54.1,M,,*6A
$GNGLL,5243.35117,N,00719.14671,W,192820.00,A,A*6E
$GNGNS,192820.20,5243.35117,N,00719.14672,W,AA,09,1.97,62.3,54.1,,*41
$GNGGA,192820.20,5243.35117,N,00719.14672,W,1,09,1.97,62.3,M,54.1,M,,*6B
$GNGLL,5243.35117,N,00719.14672,W,192820.20,A,A*6F
$GNGNS,192820.40,5243.35117,N,00719.14672,W,AA,09,1.97,62.3,54.1,,*47
$GNGGA,192820.40,5243.35117,N,00719.14672,W,1,09,1.97,62.3,M,54.1,M,,*6D
$GNGLL,5243.35117,N,00719.14672,W,192820.40,A,A*69
$GNGNS,192820.60,5243.35118,N,00719.14673,W,AA,09,1.97,62.4,54.1,,*4C
$GNGGA,192820.60,5243.35118,N,00719.14673,W,1,09,1.97,62.4,M,54.1,M,,*66
$GNGLL,5243.35118,N,00719.14673,W,192820.60,A,A*65
$GNGNS,192820.80,5243.35118,N,00719.14672,W,AA,09,1.97,62.4,54.1,,*43
$GNGGA,192820.80,5243.35118,N,00719.14672,W,1,09,1.97,62.4,M,54.1,M,,*69
$GNGLL,5243.35118,N,00719.14672,W,192820.80,A,A*6A
$GNGNS,192821.00,5243.35119,N,00719.14672,W,AA,09,1.97,62.4,54.1,,*4B
$GNGGA,192821.00,5243.35119,N,00719.14672,W,1,09,1.97,62.4,M,54.1,M,,*61
$GNGLL,5243.35119,N,00719.14672,W,192821.00,A,A*62
$GNGNS,192821.20,5243.35119,N,00719.14672,W,AA,09,1.97,62.4,54.1,,*49
$GNGGA,192821.20,5243.35119,N,00719.14672,W,1,09,1.97,62.4,M,54.1,M,,*63
$GNGLL,5243.35119,N,00719.14672,W,192821.20,A,A*60
$GNGNS,192821.40,5243.35120,N,00719.14672,W,AA,09,1.97,62.5,54.1,,*44
$GNGGA,192821.40,5243.35120,N,00719.14672,W,1,09,1.97,62.5,M,54.1,M,,*6E
$GNGLL,5243.35120,N,00719.14672,W,192821.40,A,A*6C
$GNGNS,192821.60,5243.35121,N,00719.14672,W,AA,09,1.97,62.5,54.1,,*47
$GNGGA,192821.60,5243.35121,N,00719.14672,W,1,09,1.97,62.5,M,54.1,M,,*6D
$GNGLL,5243.35121,N,00719.14672,W,192821.60,A,A*6F
$GNGNS,192821.80,5243.35121,N,00719.14673,W,AA,09,1.97,62.5,54.1,,*48
$GNGGA,192821.80,5243.35121,N,00719.14673,W,1,09,1.97,62.5,M,54.1,M,,*62
$GNGLL,5243.35121,N,00719.14673,W,192821.80,A,A*60
$GNGNS,192822.00,5243.35122,N,00719.14673,W,AA,09,1.97,62.6,54.1,,*43
$GNGGA,192822.00,5243.35122,N,00719.14673,W,1,09,1.97,62.6,M,54.1,M,,*69
$GNGLL,5243.35122,N,00719.14673,W,192822.00,A,A*68
$GNGNS,192822.20,5243.35122,N,00719.14674,W,AA,09,1.97,62.6,54.1,,*46
$GNGGA,192822.20,5243.35122,N,00719.14674,W,1,09,1.97,62.6,M,54.1,M,,*6C
$GNGLL,5243.35122,N,00719.14674,W,192822.20,A,A*6D
$GNGNS,192822.40,5243.35122,N,00719.14674,W,AA,09,1.97,62.6,54.1,,*40
$GNGGA,192822.40,5243.35122,N,00719.14674,W,1,09,1.97,62.6,M,54.1,M,,*6A
$GNGLL,5243.35122,N,00719.14674,W,192822.40,A,A*6B
$GNGNS,192822.60,5243.35122,N,00719.14674,W,AA,09,1.97,62.6,54.1,,*42
$GNGGA,192822.60,5243.35122,N,00719.14674,W,1,09,1.97,62.6,M,54.1,M,,*68
$GNGLL,5243.35122,N,00719.14674,W,192822.60,A,A*69
$GNGNS,192822.80,5243.35123,N,00719.14674,W,AA,09,1.97,62.6,54.1,,*4D
$GNGGA,192822.80,5243.35123,N,00719.14674,W,1,09,1.97,62.6,M,54.1,M,,*67
$GNGLL,5243.35123,N,00719.14674,W,192822.80,A,A*66
$GNGNS,192823.00,5243.35125,N,00719.14674,W,AA,09,1.97,62.6,54.1,,*42
$GNGGA,192823.00,5243.35125,N,00719.14674,W,1,09,1.97,62.6,M,54.1,M,,*68
$GNGLL,5243.35125,N,00719.14674,W,192823.00,A,A*69
$GNGNS,192823.20,5243.35125,N,00719.14674,W,AA,09,1.97,62.6,54.1,,*40
$GNGGA,192823.20,5243.35125,N,00719.14674,W,1,09,1.97,62.6,M,54.1,M,,*6A
$GNGLL,5243.35125,N,00719.14674,W,192823.20,A,A*6B
$GNGNS,192823.40,5243.35125,N,00719.14675,W,AA,09,1.97,62.6,54.1,,*47
$GNGGA,192823.40,5243.35125,N,00719.14675,W,1,09,1.97,62.6,M,54.1,M,,*6D
$GNGLL,5243.35125,N,00719.14675,W,192823.40,A,A*6C
$GNGNS,192823.60,5243.35125,N,00719.14676,W,AA,09,1.97,62.7,54.1,,*47
$GNGGA,192823.60,5243.35125,N,00719.14676,W,1,09,1.97,62.7,M,54.1,M,,*6D
$GNGLL,5243.35125,N,00719.14676,W,192823.60,A,A*6D
$GNGNS,192823.80,5243.35126,N,00719.14677,W,AA,09,1.97,62.7,54.1,,*4B
$GNGGA,192823.80,5243.35126,N,00719.14677,W,1,09,1.97,62.7,M,54.1,M,,*61
$GNGLL,5243.35126,N,00719.14677,W,192823.80,A,A*61
$GNGNS,192824.00,5243.35128,N,00719.14678,W,AA,09,1.97,62.8,54.1,,*4A
$GNGGA,192824.00,5243.35128,N,00719.14678,W,1,09,1.97,62.8,M,54.1,M,,*60
$GNGLL,5243.35128,N,00719.14678,W,192824.00,A,A*6F
$GNGNS,192824.20,5243.35128,N,00719.14678,W,AA,09,1.97,62.9,54.1,,*49
$GNGGA,192824.20,5243.35128,N,00719.14678,W,1,09,1.97,62.9,M,54.1,M,,*63
$GNGLL,5243.35128,N,00719.14678,W,192824.20,A,A*6D
$GNGNS,192824.40,5243.35128,N,00719.14678,W,AA,09,1.97,62.9,54.1,,*4F
$GNGGA,192824.40,5243.35128,N,00719.14678,W,1,09,1.97,62.9,M,54.1,M,,*65
$GNGLL,5243.35128,N,00719.14678,W,192824.40,A,A*6B
$GNGNS,192824.60,5243.35129,N,00719.14679,W,AA,09,1.97,62.9,54.1,,*4D
$GNGGA,192824.60,5243.35129,N,00719.14679,W,1,09,1.97,62.9,M,54.1,M,,*67
$GNGLL,5243.35129,N,00719.14679,W,192824.60,A,A*69
$GNGNS,192824.80,5243.35128,N,00719.14680,W,AA,09,1.97,62.9,54.1,,*44
$GNGGA,192824.80,5243.35128,N,00719.14680,W,1,09,1.97,62.9,M,54.1,M,,*6E
$GNGLL,5243.35128,N,00719.14680,W,192824.80,A,A*60
$GNGNS,192825.00,5243.35127,N,00719.14679,W,AA,09,1.97,62.9,54.1,,*44
$GNGGA,192825.00,5243.35127,N,00719.14679,W,1,09,1.97,62.9,M,54.1,M,,*6E
$GNGLL,5243.35127,N,00719.14679,W,192825.00,A,A*60
$GNGNS,192825.20,5243.35127,N,00719.14678,W,AA,09,1.97,62.9,54.1,,*47
$GNGGA,192825.20,5243.35127,N,00719.14678,W,1,09,1.97,62.9,M,54.1,M,,*6D
$GNGLL,5243.35127,N,00719.14678,W,192825.20,A,A*63
$GNGNS,192825.40,5243.35127,N,00719.14678,W,AA,09,1.97,62.9,54.1,,*41
$GNGGA,192825.40,5243.35127,N,00719.14678,W,1,09,1.97,62.9,M,54.1,M,,*6B
$GNGLL,5243.35127,N,00719.14678,W,192825.40,A,A*65
$GNGNS,192825.60,5243.35127,N,00719.14679,W,AA,09,1.97,62.9,54.1,,*42
$GNGGA,192825.60,5243.35127,N,00719.14679,W,1,09,1.97,62.9,M,54.1,M,,*68
$GNGLL,5243.35127,N,00719.14679,W,192825.60,A,A*66
$GNGNS,192825.80,5243.35127,N,00719.14679,W,AA,09,1.97,62.9,54.1,,*4C
$GNGGA,192825.80,5243.35127,N,00719.14679,W,1,09,1.97,62.9,M,54.1,M,,*66
$GNGLL,5243.35127,N,00719.14679,W,192825.80,A,A*68
$GNGNS,192826.00,5243.35127,N,00719.14678,W,AA,09,1.97,62.9,54.1,,*46
$GNGGA,192826.00,5243.35127,N,00719.14678,W,1,09,1.97,62.9,M,54.1,M,,*6C
$GNGLL,5243.35127,N,00719.14678,W,192826.00,A,A*62
$GNGNS,192826.20,5243.35127,N,00719.14678,W,AA,09,1.97,62.9,54.1,,*44
$GNGGA,192826.20,5243.35127,N,00719.14678,W,1,09,1.97,62.9,M,54.1,M,,*6E
$GNGLL,5243.35127,N,00719.14678,W,192826.20,A,A*60
$GNGNS,192826.40,5243.35127,N,00719.14678,W,AA,09,1.97,62.9,54.1,,*42
$GNGGA,192826.40,5243.35127,N,00719.14678,W,1,09,1.97,62.9,M,54.1,M,,*68
$GNGLL,5243.35127,N,00719.14678,W,192826.40,A,A*66
$GNGNS,192826.60,5243.35127,N,00719.14679,W,AA,09,1.97,62.9,54.1,,*41
$GNGGA,192826.60,5243.35127,N,00719.14679,W,1,09,1.97,62.9,M,54.1,M,,*6B
$GNGLL,5243.35127,N,00719.14679,W,192826.60,A,A*65
$GNGNS,192826.80,5243.35127,N,00719.14679,W,AA,08,2.05,62.9,54.1,,*46
$GNGGA,192826.80,5243.35127,N,00719.14679,W,1,08,2.05,62.9,M,54.1,M,,*6C
$GNGLL,5243.35127,N,00719.14679,W,192826.80,A,A*6B
$GNGNS,192827.00,5243.35127,N,00719.14678,W,AA,08,2.05,62.9,54.1,,*4E
$GNGGA,192827.00,5243.35127,N,00719.14678,W,1,08,2.05,62.9,M,54.1,M,,*64
$GNGLL,5243.35127,N,00719.14678,W,192827.00,A,A*63
$GNGNS,192827.20,5243.35127,N,00719.14678,W,AA,08,2.05,62.9,54.1,,*4C
$GNGGA,192827.20,5243.35127,N,00719.14678,W,1,08,2.05,62.9,M,54.1,M,,*66
$GNGLL,5243.35127,N,00719.14678,W,192827.20,A,A*61
$GNGNS,192827.40,5243.35127,N,00719.14678,W,AA,09,1.97,62.9,54.1,,*43
$GNGGA,192827.40,5243.35127,N,00719.14678,W,1,09,1.97,62.9,M,54.1,M,,*69
$GNGLL,5243.35127,N,00719.14678,W,192827.40,A,A*67
$GNGNS,192827.60,5243.35127,N,00719.14678,W,AA,08,2.05,62.9,54.1,,*48
$GNGGA,192827.60,5243.35127,N,00719.14678,W,1,08,2.05,62.9,M,54.1,M,,*62
$GNGLL,5243.35127,N,00719.14678,W,192827.60,A,A*65
$GNGNS,192827.80,5243.35126,N,00719.14678,W,AA,08,2.05,62.9,54.1,,*47
$GNGGA,192827.80,5243.35126,N,00719.14678,W,1,08,2.05,62.9,M,54.1,M,,*6D
$GNGLL,5243.35126,N,00719.14678,W,192827.80,A,A*6A
$GNGNS,192828.00,5243.35126,N,00719.14678,W,AA,08,2.05,62.9,54.1,,*40
$GNGGA,192828.00,5243.35126,N,00719.14678,W,1,08,2.05,62.9,M,54.1,M,,*6A
$GNGLL,5243.35126,N,00719.14678,W,192828.00,A,A*6D
$GNGNS,192828.20,5243.35126,N,00719.14678,W,AA,08,2.05,62.9,54.1,,*42
$GNGGA,192828.20,5243.35126,N,00719.14678,W,1,08,2.05,62.9,M,54.1,M,,*68
$GNGLL,5243.35126,N,00719.14678,W,192828.20,A,A*6F
$GNGNS,192828.40,5243.35126,N,00719.14677,W,AA,08,2.05,62.8,54.1,,*4A
$GNGGA,192828.40,5243.35126,N,00719.14677,W,1,08,2.05,62.8,M,54.1,M,,*60
$GNGLL,5243.35126,N,00719.14677,W,192828.40,A,A*66
$GNGNS,192828.60,5243.35126,N,00719.14676,W,AA,08,2.05,62.8,54.1,,*49
$GNGGA,192828.60,5243.35126,N,00719.14676,W,1,08,2.05,62.8,M,54.1,M,,*63
$GNGLL,5243.35126,N,00719.14676,W,192828.60,A,A*65
$GNGNS,192828.80,5243.35126,N,00719.14676,W,AA,08,2.05,62.8,54.1,,*47
$GNGGA,192828.80,5243.35126,N,00719.14676,W,1,08,2.05,62.8,M,54.1,M,,*6D
$GNGLL,5243.35126,N,00719.14676,W,192828.80,A,A*6B
$GNGNS,192829.00,5243.35126,N,00719.14676,W,AA,08,2.05,62.9,54.1,,*4F
$GNGGA,192829.00,5243.35126,N,00719.14676,W,1,08,2.05,62.9,M,54.1,M,,*65
$GNGLL,5243.35126,N,00719.14676,W,192829.00,A,A*62
$GNGNS,192829.20,5243.35127,N,00719.14676,W,AA,08,2.05,62.9,54.1,,*4C
$GNGGA,192829.20,5243.35127,N,00719.14676,W,1,08,2.05,62.9,M,54.1,M,,*66
$GNGLL,5243.35127,N,00719.14676,W,192829.20,A,A*61
$GNGNS,192829.40,5243.35126,N,00719.14676,W,AA,08,2.05,62.9,54.1,,*4B
$GNGGA,192829.40,5243.35126,N,00719.14676,W,1,08,2.05,62.9,M,54.1,M,,*61
$GNGLL,5243.35126,N,00719.14676,W,192829.40,A,A*66
$GNGNS,192829.60,5243.35126,N,00719.14676,W,AA,08,2.05,62.9,54.1,,*49
$GNGGA,192829.60,5243.35126,N,00719.14676,W,1,08,2.05,62.9,M,54.1,M,,*63
$GNGLL,5243.35126,N,00719.14676,W,192829.60,A,A*64
$GNGNS,192829.80,5243.35126,N,00719.14676,W,AA,08,2.05,62.9,54.1,,*47
$GNGGA,192829.80,5243.35126,N,00719.14676,W,1,08,2.05,62.9,M,54.1,M,,*6D
$GNGLL,5243.35126,N,00719.14676,W,192829.80,A,A*6A
$GNGNS,192830.00,5243.35126,N,00719.14676,W,AA,08,2.05,62.9,54.1,,*47
$GNGGA,192830.00,5243.35126,N,00719.14676,W,1,08,2.05,62.9,M,54.1,M,,*6D
$GNGLL,5243.35126,N,00719.14676,W,192830.00,A,A*6A
$GNGNS,192830.20,5243.35126,N,00719.14677,W,AA,08,2.05,62.9,54.1,,*44
$GNGGA,192830.20,5243.35126,N,00719.14677,W,1,08,2.05,62.9,M,54.1,M,,*6E
$GNGLL,5243.35126,N,00719.14677,W,192830.20,A,A*69
$GNGNS,192830.40,5243.35126,N,00719.14677,W,AA,08,2.05,62.9,54.1,,*42
$GNGGA,192830.40,5243.35126,N,00719.14677,W,1,08,2.05,62.9,M,54.1,M,,*68
$GNGLL,5243.35126,N,00719.14677,W,192830.40,A,A*6F
$GNGNS,192830.60,5243.35126,N,00719.14677,W,AA,08,2.05,62.9,54.1,,*40
$GNGGA,192830.60,5243.35126,N,00719.14677,W,1,08,2.05,62.9,M,54.1,M,,*6A
$GNGLL,5243.35126,N,00719.14677,W,192830.60,A,A*6D
$GNGNS,192830.80,5243.35126,N,00719.14677,W,AA,08,2.05,62.9,54.1,,*4E
$GNGGA,192830.80,5243.35126,N,00719.14677,W,1,08,2.05,62.9,M,54.1,M,,*64
$GNGLL,5243.35126,N,00719.14677,W,192830.80,A,A*63
$GNGNS,192831.00,5243.35126,N,00719.14677,W,AA,09,2.05,62.9,54.1,,*46
$GNGGA,192831.00,5243.35126,N,00719.14677,W,1,09,2.05,62.9,M,54.1,M,,*6C
$GNGLL,5243.35126,N,00719.14677,W,192831.00,A,A*6A
$GNGNS,192831.20,5243.35126,N,00719.14677,W,AA,09,2.05,62.9,54.1,,*44
$GNGGA,192831.20,5243.35126,N,00719.14677,W,1,09,2.05,62.9,M,54.1,M,,*6E
$GNGLL,5243.35126,N,00719.14677,W,192831.20,A,A*68
$GNGNS,192831.40,5243.35126,N,00719.14677,W,AA,09,2.05,63.0,54.1,,*4A
$GNGGA,192831.40,5243.35126,N,00719.14677,W,1,09,2.05,63.0,M,54.1,M,,*60
$GNGLL,5243.35126,N,00719.14677,W,192831.40,A,A*6E
$GNGNS,192831.60,5243.35126,N,00719.14678,W,AA,09,2.05,63.0,54.1,,*47
$GNGGA,192831.60,5243.35126,N,00719.14678,W,1,09,2.05,63.0,M,54.1,M,,*6D
$GNGLL,5243.35126,N,00719.14678,W,192831.60,A,A*63
$GNGNS,192831.80,5243.35129,N,00719.14679,W,AA,09,2.05,63.1,54.1,,*46
$GNGGA,192831.80,5243.35129,N,00719.14679,W,1,09,2.05,63.1,M,54.1,M,,*6C
$GNGLL,5243.35129,N,00719.14679,W,192831.80,A,A*63
$GNGNS,192832.00,5243.35129,N,00719.14680,W,AA,09,2.05,63.1,54.1,,*4B
$GNGGA,192832.00,5243.35129,N,00719.14680,W,1,09,2.05,63.1,M,54.1,M,,*61
$GNGLL,5243.35129,N,00719.14680,W,192832.00,A,A*6E
$GNGNS,192832.20,5243.35130,N,00719.14681,W,AA,09,2.05,63.2,54.1,,*43
$GNGGA,192832.20,5243.35130,N,00719.14681,W,1,09,2.05,63.2,M,54.1,M,,*69
$GNGLL,5243.35130,N,00719.14681,W,192832.20,A,A*65
$GNGNS,192832.40,5243.35130,N,00719.14681,W,AA,09,2.05,63.2,54.1,,*45
$GNGGA,192832.40,5243.35130,N,00719.14681,W,1,09,2.05,63.2,M,54.1,M,,*6F
$GNGLL,5243.35130,N,00719.14681,W,192832.40,A,A*63
$GNGNS,192832.60,5243.35129,N,00719.14681,W,AA,09,2.05,63.2,54.1,,*4F
$GNGGA,192832.60,5243.35129,N,00719.14681,W,1,09,2.05,63.2,M,54.1,M,,*65
$GNGLL,5243.35129,N,00719.14681,W,192832.60,A,A*69
$GNGNS,192832.80,5243.35129,N,00719.14681,W,AA,09,2.05,63.2,54.1,,*41
$GNGGA,192832.80,5243.35129,N,00719.14681,W,1,09,2.05,63.2,M,54.1,M,,*6B
$GNGLL,5243.35129,N,00719.14681,W,192832.80,A,A*67
$GNGNS,192833.00,5243.35129,N,00719.14682,W,AA,09,2.05,63.2,54.1,,*4B
$GNGGA,192833.00,5243.35129,N,00719.14682,W,1,09,2.05,63.2,M,54.1,M,,*61
$GNGLL,5243.35129,N,00719.14682,W,192833.00,A,A*6D
$GNGNS,192833.20,5243.35129,N,00719.14683,W,AA,09,2.05,63.3,54.1,,*49
$GNGGA,192833.20,5243.35129,N,00719.14683,W,1,09,2.05,63.3,M,54.1,M,,*63
$GNGLL,5243.35129,N,00719.14683,W,192833.20,A,A*6E
$GNGNS,192833.40,5243.35129,N,00719.14684,W,AA,09,2.05,63.3,54.1,,*48
$GNGGA,192833.40,5243.35129,N,00719.14684,W,1,09,2.05,63.3,M,54.1,M,,*62
$GNGLL,5243.35129,N,00719.14684,W,192833.40,A,A*6F
$GNGNS,192833.60,5243.35130,N,00719.14685,W,AA,09,2.05,63.4,54.1,,*44
$GNGGA,192833.60,5243.35130,N,00719.14685,W,1,09,2.05,63.4,M,54.1,M,,*6E
$GNGLL,5243.35130,N,00719.14685,W,192833.60,A,A*64
$GNGNS,192833.80,5243.35130,N,00719.14685,W,AA,09,2.05,63.4,54.1,,*4A
$GNGGA,192833.80,5243.35130,N,00719.14685,W,1,09,2.05,63.4,M,54.1,M,,*60
$GNGLL,5243.35130,N,00719.14685,W,192833.80,A,A*6A
$GNGNS,192834.00,5243.35130,N,00719.14685,W,AA,09,2.05,63.4,54.1,,*45
$GNGGA,192834.00,5243.35130,N,00719.14685,W,1,09,2.05,63.4,M,54.1,M,,*6F
$GNGLL,5243.35130,N,00719.14685,W,192834.00,A,A*65
$GNGNS,192834.20,5243.35130,N,00719.14685,W,AA,09,2.05,63.3,54.1,,*40
$GNGGA,192834.20,5243.35130,N,00719.14685,W,1,09,2.05,63.3,M,54.1,M,,*6A
$GNGLL,5243.35130,N,00719.14685,W,192834.20,A,A*67
$GNGNS,192834.40,5243.35129,N,00719.14685,W,AA,09,1.97,63.3,54.1,,*46
$GNGGA,192834.40,5243.35129,N,00719.14685,W,1,09,1.97,63.3,M,54.1,M,,*6C
$GNGLL,5243.35129,N,00719.14685,W,192834.40,A,A*69
$GNGNS,192834.60,5243.35129,N,00719.14685,W,AA,09,1.97,63.3,54.1,,*44
$GNGGA,192834.60,5243.35129,N,00719.14685,W,1,09,1.97,63.3,M,54.1,M,,*6E
$GNGLL,5243.35129,N,00719.14685,W,192834.60,A,A*6B
$GNGNS,192834.80,5243.35129,N,00719.14685,W,AA,09,1.97,63.3,54.1,,*4A
$GNGGA,192834.80,5243.35129,N,00719.14685,W,1,09,1.97,63.3,M,54.1,M,,*60
$GNGLL,5243.35129,N,00719.14685,W,192834.80,A,A*65
$GNGNS,192835.00,5243.35130,N,00719.14686,W,AA,09,1.97,63.3,54.1,,*48
$GNGGA,192835.00,5243.35130,N,00719.14686,W,1,09,1.97,63.3,M,54.1,M,,*62
$GNGLL,5243.35130,N,00719.14686,W,192835.00,A,A*67
$GNGNS,192835.20,5243.35130,N,00719.14686,W,AA,09,1.97,63.4,54.1,,*4D
$GNGGA,192835.20,5243.35130,N,00719.14686,W,1,09,1.97,63.4,M,54.1,M,,*67
$GNGLL,5243.35130,N,00719.14686,W,192835.20,A,A*65
$GNGNS,192835.40,5243.35130,N,00719.14685,W,AA,09,1.97,63.4,54.1,,*48
$GNGGA,192835.40,5243.35130,N,00719.14685,W,1,09,1.97,63.4,M,54.1,M,,*62
$GNGLL,5243.35130,N,00719.14685,W,192835.40,A,A*60
$GNGNS,192835.60,5243.35131,N,00719.14685,W,AA,09,1.97,63.4,54.1,,*4B
$GNGGA,192835.60,5243.35131,N,00719.14685,W,1,09,1.97,63.4,M,54.1,M,,*61
$GNGLL,5243.35131,N,00719.14685,W,192835.60,A,A*63
$GNGNS,192835.80,5243.35131,N,00719.14685,W,AA,09,1.97,63.4,54.1,,*45
$GNGGA,192835.80,5243.35131,N,00719.14685,W,1,09,1.97,63.4,M,54.1,M,,*6F
$GNGLL,5243.35131,N,00719.14685,W,192835.80,A,A*6D
$GNGNS,192836.00,5243.35131,N,00719.14685,W,AA,09,1.97,63.4,54.1,,*4E
$GNGGA,192836.00,5243.35131,N,00719.14685,W,1,09,1.97,63.4,M,54.1,M,,*64
$GNGLL,5243.35131,N,00719.14685,W,192836.00,A,A*66
$GNGNS,192836.20,5243.35132,N,00719.14685,W,AA,09,1.97,63.4,54.1,,*4F
$GNGGA,192836.20,5243.35132,N,00719.14685,W,1,09,1.97,63.4,M,54.1,M,,*65
$GNGLL,5243.35132,N,00719.14685,W,192836.20,A,A*67
$GNGNS,192836.40,5243.35132,N,00719.14685,W,AA,09,1.97,63.4,54.1,,*49
$GNGGA,192836.40,5243.35132,N,00719.14685,W,1,09,1.97,63.4,M,54.1,M,,*63
$GNGLL,5243.35132,N,00719.14685,W,192836.40,A,A*61
$GNGNS,192836.60,5243.35132,N,00719.14685,W,AA,09,1.97,63.4,54.1,,*4B
$GNGGA,192836.60,5243.35132,N,00719.14685,W,1,09,1.97,63.4,M,54.1,M,,*61
$GNGLL,5243.35132,N,00719.14685,W,192836.60,A,A*63
$GNGNS,192836.80,5243.35133,N,00719.14685,W,AA,09,1.97,63.4,54.1,,*44
$GNGGA,192836.80,5243.35133,N,00719.14685,W,1,09,1.97,63.4,M,54.1,M,,*6E
$GNGLL,5243.35133,N,00719.14685,W,192836.80,A,A*6C
$GNGNS,192837.00,5243.35132,N,00719.14685,W,AA,09,1.97,63.4,54.1,,*4C
$GNGGA,192837.00,5243.35132,N,00719.14685,W,1,09,1.97,63.4,M,54.1,M,,*66
$GNGLL,5243.35132,N,00719.14685,W,192837.00,A,A*64
$GNGNS,192837.20,5243.35132,N,00719.14685,W,AA,09,1.97,63.4,54.1,,*4E
$GNGGA,192837.20,5243.35132,N,00719.14685,W,1,09,1.97,63.4,M,54.1,M,,*64
$GNGLL,5243.35132,N,00719.14685,W,192837.20,A,A*66
$GNGNS,192837.40,5243.35133,N,00719.14685,W,AA,09,1.97,63.4,54.1,,*49
$GNGGA,192837.40,5243.35133,N,00719.14685,W,1,09,1.97,63.4,M,54.1,M,,*63
$GNGLL,5243.35133,N,00719.14685,W,192837.40,A,A*61
$GNGNS,192837.60,5243.35132,N,00719.14684,W,AA,09,1.97,63.4,54.1,,*4B
$GNGGA,192837.60,5243.35132,N,00719.14684,W,1,09,1.97,63.4,M,54.1,M,,*61
$GNGLL,5243.35132,N,00719.14684,W,192837.60,A,A*63
$GNGNS,192837.80,5243.35132,N,00719.14684,W,AA,09,1.97,63.4,54.1,,*45
$GNGGA,192837.80,5243.35132,N,00719.14684,W,1,09,1.97,63.4,M,54.1,M,,*6F
$GNGLL,5243.35132,N,00719.14684,W,192837.80,A,A*6D
$GNGNS,192838.00,5243.35133,N,00719.14685,W,AA,09,1.97,63.4,54.1,,*42
$GNGGA,192838.00,5243.35133,N,00719.14685,W,1,09,1.97,63.4,M,54.1,M,,*68
$GNGLL,5243.35133,N,00719.14685,W,192838.00,A,A*6A
$GNGNS,192838.20,5243.35133,N,00719.14685,W,AA,09,2.05,63.4,54.1,,*48
$GNGGA,192838.20,5243.35133,N,00719.14685,W,1,09,2.05,63.4,M,54.1,M,,*62
$GNGLL,5243.35133,N,00719.14685,W,192838.20,A,A*68
$GNGNS,192838.40,5243.35133,N,00719.14686,W,AA,09,2.05,63.4,54.1,,*4D
$GNGGA,192838.40,5243.35133,N,00719.14686,W,1,09,2.05,63.4,M,54.1,M,,*67
$GNGLL,5243.35133,N,00719.14686,W,192838.40,A,A*6D
$GNGNS,192838.60,5243.35133,N,00719.14686,W,AA,09,1.97,63.5,54.1,,*46
$GNGGA,192838.60,5243.35133,N,00719.14686,W,1,09,1.97,63.5,M,54.1,M,,*6C
$GNGLL,5243.35133,N,00719.14686,W,192838.60,A,A*6F
$GNGNS,192838.80,5243.35133,N,00719.14687,W,AA,09,1.97,63.5,54.1,,*49
$GNGGA,192838.80,5243.35133,N,00719.14687,W,1,09,1.97,63.5,M,54.1,M,,*63
$GNGLL,5243.35133,N,00719.14687,W,192838.80,A,A*60
$GNGNS,192839.00,5243.35133,N,00719.14686,W,AA,09,1.97,63.5,54.1,,*41
$GNGGA,192839.00,5243.35133,N,00719.14686,W,1,09,1.97,63.5,M,54.1,M,,*6B
$GNGLL,5243.35133,N,00719.14686,W,192839.00,A,A*68
$GNGNS,192839.20,5243.35133,N,00719.14687,W,AA,09,2.05,63.5,54.1,,*4A
$GNGGA,192839.20,5243.35133,N,00719.14687,W,1,09,2.05,63.5,M,54.1,M,,*60
$GNGLL,5243.35133,N,00719.14687,W,192839.20,A,A*6B
$GNGNS,192839.40,5243.35133,N,00719.14687,W,AA,09,1.97,63.5,54.1,,*44
$GNGGA,192839.40,5243.35133,N,00719.14687,W,1,09,1.97,63.5,M,54.1,M,,*6E
$GNGLL,5243.35133,N,00719.14687,W,192839.40,A,A*6D
$GNGNS,192839.60,5243.35133,N,00719.14688,W,AA,09,1.97,63.5,54.1,,*49
$GNGGA,192839.60,5243.35133,N,00719.14688,W,1,09,1.97,63.5,M,54.1,M,,*63
$GNGLL,5243.35133,N,00719.14688,W,192839.60,A,A*60
$GNGNS,192839.80,5243.35133,N,00719.14688,W,AA,09,1.97,63.5,54.1,,*47
$GNGGA,192839.80,5243.35133,N,00719.14688,W,1,09,1.97,63.5,M,54.1,M,,*6D
$GNGLL,5243.35133,N,00719.14688,W,192839.80,A,A*6E
$GNGNS,192840.00,5243.35133,N,00719.14688,W,AA,09,1.97,63.5,54.1,,*41
$GNGGA,192840.00,5243.35133,N,00719.14688,W,1,09,1.97,63.5,M,54.1,M,,*6B
$GNGLL,5243.35133,N,00719.14688,W,192840.00,A,A*68
$GNGNS,192840.20,5243.35133,N,00719.14688,W,AA,09,1.97,63.5,54.1,,*43
$GNGGA,192840.20,5243.35133,N,00719.14688,W,1,09,1.97,63.5,M,54.1,M,,*69
$GNGLL,5243.35133,N,00719.14688,W,192840.20,A,A*6A
$GNGNS,192840.40,5243.35133,N,00719.14689,W,AA,09,1.97,63.5,54.1,,*44
$GNGGA,192840.40,5243.35133,N,00719.14689,W,1,09,1.97,63.5,M,54.1,M,,*6E
$GNGLL,5243.35133,N,00719.14689,W,192840.40,A,A*6D
$GNGNS,192840.60,5243.35134,N,00719.14692,W,AA,09,1.97,63.6,54.1,,*48
$GNGGA,192840.60,5243.35134,N,00719.14692,W,1,09,1.97,63.6,M,54.1,M,,*62
$GNGLL,5243.35134,N,00719.14692,W,192840.60,A,A*62
$GNGNS,192840.80,5243.35136,N,00719.14693,W,AA,09,1.97,63.6,54.1,,*45
$GNGGA,192840.80,5243.35136,N,00719.14693,W,1,09,1.97,63.6,M,54.1,M,,*6F
$GNGLL,5243.35136,N,00719.14693,W,192840.80,A,A*6F
$GNGNS,192841.00,5243.35136,N,00719.14693,W,AA,09,1.97,63.6,54.1,,*4C
$GNGGA,192841.00,5243.35136,N,00719.14693,W,1,09,1.97,63.6,M,54.1,M,,*66
$GNGLL,5243.35136,N,00719.14693,W,192841.00,A,A*66
$GNGNS,192841.20,5243.35136,N,00719.14694,W,AA,09,1.97,63.6,54.1,,*49
$GNGGA,192841.20,5243.35136,N,00719.14694,W,1,09,1.97,63.6,M,54.1,M,,*63
$GNGLL,5243.35136,N,00719.14694,W,192841.20,A,A*63
$GNGNS,192841.40,5243.35136,N,00719.14694,W,AA,09,1.97,63.6,54.1,,*4F
$GNGGA,192841.40,5243.35136,N,00719.14694,W,1,09,1.97,63.6,M,54.1,M,,*65
$GNGLL,5243.35136,N,00719.14694,W,192841.40,A,A*65
$GNGNS,192841.60,5243.35135,N,00719.14694,W,AA,09,1.97,63.6,54.1,,*4E
$GNGGA,192841.60,5243.35135,N,00719.14694,W,1,09,1.97,63.6,M,54.1,M,,*64
$GNGLL,5243.35135,N,00719.14694,W,192841.60,A,A*64
$GNGNS,192841.80,5243.35134,N,00719.14695,W,AA,09,1.97,63.6,54.1,,*40
$GNGGA,192841.80,5243.35134,N,00719.14695,W,1,09,1.97,63.6,M,54.1,M,,*6A
$GNGLL,5243.35134,N,00719.14695,W,192841.80,A,A*6A
$GNGNS,192842.00,5243.35134,N,00719.14695,W,AA,09,1.97,63.6,54.1,,*4B
$GNGGA,192842.00,5243.35134,N,00719.14695,W,1,09,1.97,63.6,M,54.1,M,,*61
$GNGLL,5243.35134,N,00719.14695,W,192842.00,A,A*61
$GNGNS,192842.20,5243.35133,N,00719.14695,W,AA,09,1.97,63.5,54.1,,*4D
$GNGGA,192842.20,5243.35133,N,00719.14695,W,1,09,1.97,63.5,M,54.1,M,,*67
$GNGLL,5243.35133,N,00719.14695,W,192842.20,A,A*64
$GNGNS,192842.40,5243.35133,N,00719.14696,W,AA,09,1.97,63.5,54.1,,*48
$GNGGA,192842.40,5243.35133,N,00719.14696,W,1,09,1.97,63.5,M,54.1,M,,*62
$GNGLL,5243.35133,N,00719.14696,W,192842.40,A,A*61
$GNGNS,192842.60,5243.35133,N,00719.14697,W,AA,09,2.06,63.5,54.1,,*40
$GNGGA,192842.60,5243.35133,N,00719.14697,W,1,09,2.06,63.5,M,54.1,M,,*6A
$GNGLL,5243.35133,N,00719.14697,W,192842.60,A,A*62
$GNGNS,192842.80,5243.35133,N,00719.14697,W,AA,09,2.06,63.5,54.1,,*4E
$GNGGA,192842.80,5243.35133,N,00719.14697,W,1,09,2.06,63.5,M,54.1,M,,*64
$GNGLL,5243.35133,N,00719.14697,W,192842.80,A,A*6C
$GNGNS,192843.00,5243.35134,N,00719.14698,W,AA,09,2.06,63.5,54.1,,*4F
$GNGGA,192843.00,5243.35134,N,00719.14698,W,1,09,2.06,63.5,M,54.1,M,,*65
$GNGLL,5243.35134,N,00719.14698,W,192843.00,A,A*6D
$GNGNS,192843.20,5243.35134,N,00719.14699,W,AA,09,2.06,63.5,54.1,,*4C
$GNGGA,192843.20,5243.35134,N,00719.14699,W,1,09,2.06,63.5,M,54.1,M,,*66
$GNGLL,5243.35134,N,00719.14699,W,192843.20,A,A*6E
$GNGNS,192843.40,5243.35135,N,00719.14700,W,AA,09,2.06,63.5,54.1,,*4A
$GNGGA,192843.40,5243.35135,N,00719.14700,W,1,09,2.06,63.5,M,54.1,M,,*60
$GNGLL,5243.35135,N,00719.14700,W,192843.40,A,A*68
$GNGNS,192843.60,5243.35135,N,00719.14701,W,AA,09,1.97,63.5,54.1,,*42
$GNGGA,192843.60,5243.35135,N,00719.14701,W,1,09,1.97,63.5,M,54.1,M,,*68
$GNGLL,5243.35135,N,00719.14701,W,192843.60,A,A*6B
$GNGNS,192843.80,5243.35135,N,00719.14701,W,AA,09,1.97,63.5,54.1,,*4C
$GNGGA,192843.80,5243.35135,N,00719.14701,W,1,09,1.97,63.5,M,54.1,M,,*66
$GNGLL,5243.35135,N,00719.14701,W,192843.80,A,A*65
$GNGNS,192844.00,5243.35134,N,00719.14702,W,AA,09,2.06,63.5,54.1,,*4A
$GNGGA,192844.00,5243.35134,N,00719.14702,W,1,09,2.06,63.5,M,54.1,M,,*60
$GNGLL,5243.35134,N,00719.14702,W,192844.00,A,A*68
$GNGNS,192844.20,5243.35134,N,00719.14703,W,AA,09,1.97,63.5,54.1,,*42
$GNGGA,192844.20,5243.35134,N,00719.14703,W,1,09,1.97,63.5,M,54.1,M,,*68
$GNGLL,5243.35134,N,00719.14703,W,192844.20,A,A*6B
$GNGNS,192844.40,5243.35134,N,00719.14704,W,AA,09,1.97,63.5,54.1,,*43
$GNGGA,192844.40,5243.35134,N,00719.14704,W,1,09,1.97,63.5,M,54.1,M,,*69
$GNGLL,5243.35134,N,00719.14704,W,192844.40,A,A*6A
$GNGNS,192844.60,5243.35135,N,00719.14706,W,AA,09,2.06,63.5,54.1,,*49
$GNGGA,192844.60,5243.35135,N,00719.14706,W,1,09,2.06,63.5,M,54.1,M,,*63
$GNGLL,5243.35135,N,00719.14706,W,192844.60,A,A*6B
$GNGNS,192844.80,5243.35135,N,00719.14707,W,AA,09,2.06,63.5,54.1,,*46
$GNGGA,192844.80,5243.35135,N,00719.14707,W,1,09,2.06,63.5,M,54.1,M,,*6C
$GNGLL,5243.35135,N,00719.14707,W,192844.80,A,A*64
$GNGNS,192845.00,5243.35135,N,00719.14708,W,AA,09,2.06,63.5,54.1,,*40
$GNGGA,192845.00,5243.35135,N,00719.14708,W,1,09,2.06,63.5,M,54.1,M,,*6A
$GNGLL,5243.35135,N,00719.14708,W,192845.00,A,A*62
$GNGNS,192845.20,5243.35135,N,00719.14709,W,AA,09,2.06,63.5,54.1,,*43
$GNGGA,192845.20,5243.35135,N,00719.14709,W,1,09,2.06,63.5,M,54.1,M,,*69
$GNGLL,5243.35135,N,00719.14709,W,192845.20,A,A*61
$GNGNS,192845.40,5243.35135,N,00719.14709,W,AA,09,2.06,63.5,54.1,,*45
$GNGGA,192845.40,5243.35135,N,00719.14709,W,1,09,2.06,63.5,M,54.1,M,,*6F
$GNGLL,5243.35135,N,00719.14709,W,192845.40,A,A*67
$GNGNS,192845.60,5243.35135,N,00719.14709,W,AA,09,2.06,63.5,54.1,,*47
$GNGGA,192845.60,5243.35135,N,00719.14709,W,1,09,2.06,63.5,M,54.1,M,,*6D
$GNGLL,5243.35135,N,00719.14709,W,192845.60,A,A*65
$GNGNS,192845.80,5243.35135,N,00719.14709,W,AA,09,1.97,63.5,54.1,,*42
$GNGGA,192845.80,5243.35135,N,00719.14709,W,1,09,1.97,63.5,M,54.1,M,,*68
$GNGLL,5243.35135,N,00719.14709,W,192845.80,A,A*6B
$GNGNS,192846.00,5243.35135,N,00719.14710,W,AA,09,1.97,63.5,54.1,,*41
$GNGGA,192846.00,5243.35135,N,00719.14710,W,1,09,1.97,63.5,M,54.1,M,,*6B
$GNGLL,5243.35135,N,00719.14710,W,192846.00,A,A*68
$GNGNS,192846.20,5243.35135,N,00719.14710,W,AA,09,1.97,63.5,54.1,,*43
$GNGGA,192846.20,5243.35135,N,00719.14710,W,1,09,1.97,63.5,M,54.1,M,,*69
$GNGLL,5243.35135,N,00719.14710,W,192846.20,A,A*6A
$GNGNS,192846.40,5243.35134,N,00719.14711,W,AA,09,1.97,63.5,54.1,,*45
$GNGGA,192846.40,5243.35134,N,00719.14711,W,1,09,1.97,63.5,M,54.1,M,,*6F
$GNGLL,5243.35134,N,00719.14711,W,192846.40,A,A*6C
$GNGNS,192846.60,5243.35135,N,00719.14711,W,AA,09,1.97,63.5,54.1,,*46
$GNGGA,192846.60,5243.35135,N,00719.14711,W,1,09,1.97,63.5,M,54.1,M,,*6C
$GNGLL,5243.35135,N,00719.14711,W,192846.60,A,A*6F
$GNGNS,192846.80,5243.35134,N,00719.14712,W,AA,09,1.97,63.4,54.1,,*4B
$GNGGA,192846.80,5243.35134,N,00719.14712,W,1,09,1.97,63.4,M,54.1,M,,*61
$GNGLL,5243.35134,N,00719.14712,W,192846.80,A,A*63
$GNGNS,192847.00,5243.35134,N,00719.14712,W,AA,09,1.97,63.4,54.1,,*42
$GNGGA,192847.00,5243.35134,N,00719.14712,W,1,09,1.97,63.4,M,54.1,M,,*68
$GNGLL,5243.35134,N,00719.14712,W,192847.00,A,A*6A
$GNGNS,192847.20,5243.35136,N,00719.14714,W,AA,09,1.97,63.4,54.1,,*44
$GNGGA,192847.20,5243.35136,N,00719.14714,W,1,09,1.97,63.4,M,54.1,M,,*6E
$GNGLL,5243.35136,N,00719.14714,W,192847.20,A,A*6C
$GNGNS,192847.40,5243.35136,N,00719.14715,W,AA,09,1.97,63.4,54.1,,*43
$GNGGA,192847.40,5243.35136,N,00719.14715,W,1,09,1.97,63.4,M,54.1,M,,*69
$GNGLL,5243.35136,N,00719.14715,W,192847.40,A,A*6B
$GNGNS,192847.60,5243.35138,N,00719.14717,W,AA,09,2.06,63.4,54.1,,*46
$GNGGA,192847.60,5243.35138,N,00719.14717,W,1,09,2.06,63.4,M,54.1,M,,*6C
$GNGLL,5243.35138,N,00719.14717,W,192847.60,A,A*65
$GNGNS,192847.80,5243.35137,N,00719.14717,W,AA,09,1.97,63.3,54.1,,*4B
$GNGGA,192847.80,5243.35137,N,00719.14717,W,1,09,1.97,63.3,M,54.1,M,,*61
$GNGLL,5243.35137,N,00719.14717,W,192847.80,A,A*64
$GNGNS,192848.00,5243.35138,N,00719.14717,W,AA,09,1.97,63.3,54.1,,*43
$GNGGA,192848.00,5243.35138,N,00719.14717,W,1,09,1.97,63.3,M,54.1,M,,*69
$GNGLL,5243.35138,N,00719.14717,W,192848.00,A,A*6C
$GNGNS,192848.20,5243.35141,N,00719.14720,W,AA,09,1.97,63.3,54.1,,*4B
$GNGGA,192848.20,5243.35141,N,00719.14720,W,1,09,1.97,63.3,M,54.1,M,,*61
$GNGLL,5243.35141,N,00719.14720,W,192848.20,A,A*64
$GNGNS,192848.40,5243.35145,N,00719.14723,W,AA,09,1.97,63.3,54.1,,*4A
$GNGGA,192848.40,5243.35145,N,00719.14723,W,1,09,1.97,63.3,M,54.1,M,,*60
$GNGLL,5243.35145,N,00719.14723,W,192848.40,A,A*65
$GNGNS,192848.60,5243.35145,N,00719.14726,W,AA,09,1.97,63.2,54.1,,*4C
$GNGGA,192848.60,5243.35145,N,00719.14726,W,1,09,1.97,63.2,M,54.1,M,,*66
$GNGLL,5243.35145,N,00719.14726,W,192848.60,A,A*62
$GNGNS,192848.80,5243.35143,N,00719.14729,W,AA,09,1.97,63.2,54.1,,*4B
$GNGGA,192848.80,5243.35143,N,00719.14729,W,1,09,1.97,63.2,M,54.1,M,,*61
$GNGLL,5243.35143,N,00719.14729,W,192848.80,A,A*65
$GNGNS,192849.00,5243.35142,N,00719.14733,W,AA,09,1.97,63.1,54.1,,*4B
$GNGGA,192849.00,5243.35142,N,00719.14733,W,1,09,1.97,63.1,M,54.1,M,,*61
$GNGLL,5243.35142,N,00719.14733,W,192849.00,A,A*66
$GNGNS,192849.20,5243.35144,N,00719.14736,W,AA,09,1.97,63.1,54.1,,*4A
$GNGGA,192849.20,5243.35144,N,00719.14736,W,1,09,1.97,63.1,M,54.1,M,,*60
$GNGLL,5243.35144,N,00719.14736,W,192849.20,A,A*67
$GNGNS,192849.40,5243.35147,N,00719.14738,W,AA,09,1.97,63.1,54.1,,*41
$GNGGA,192849.40,5243.35147,N,00719.14738,W,1,09,1.97,63.1,M,54.1,M,,*6B
$GNGLL,5243.35147,N,00719.14738,W,192849.40,A,A*6C
$GNGNS,192849.60,5243.35147,N,00719.14739,W,AA,09,1.97,63.1,54.1,,*42
$GNGGA,192849.60,5243.35147,N,00719.14739,W,1,09,1.97,63.1,M,54.1,M,,*68
$GNGLL,5243.35147,N,00719.14739,W,192849.60,A,A*6F
$GNGNS,192849.80,5243.35150,N,00719.14740,W,AA,09,1.97,63.0,54.1,,*45
$GNGGA,192849.80,5243.35150,N,00719.14740,W,1,09,1.97,63.0,M,54.1,M,,*6F
$GNGLL,5243.35150,N,00719.14740,W,192849.80,A,A*69
$GNGNS,192850.00,5243.35150,N,00719.14740,W,AA,09,1.97,63.0,54.1,,*45
$GNGGA,192850.00,5243.35150,N,00719.14740,W,1,09,1.97,63.0,M,54.1,M,,*6F
$GNGLL,5243.35150,N,00719.14740,W,192850.00,A,A*69
$GNGNS,192850.20,5243.35150,N,00719.14740,W,AA,09,1.97,63.0,54.1,,*47
$GNGGA,192850.20,5243.35150,N,00719.14740,W,1,09,1.97,63.0,M,54.1,M,,*6D
$GNGLL,5243.35150,N,00719.14740,W,192850.20,A,A*6B
$GNGNS,192850.40,5243.35150,N,00719.14740,W,AA,09,1.97,63.0,54.1,,*41
$GNGGA,192850.40,5243.35150,N,00719.14740,W,1,09,1.97,63.0,M,54.1,M,,*6B
$GNGLL,5243.35150,N,00719.14740,W,192850.40,A,A*6D
$GNGNS,192850.60,5243.35152,N,00719.14739,W,AA,09,1.97,63.1,54.1,,*4E
$GNGGA,192850.60,5243.35152,N,00719.14739,W,1,09,1.97,63.1,M,54.1,M,,*64
$GNGLL,5243.35152,N,00719.14739,W,192850.60,A,A*63
$GNGNS,192850.80,5243.35156,N,00719.14738,W,AA,09,1.97,63.2,54.1,,*46
$GNGGA,192850.80,5243.35156,N,00719.14738,W,1,09,1.97,63.2,M,54.1,M,,*6C
$GNGLL,5243.35156,N,00719.14738,W,192850.80,A,A*68
$GNGNS,192851.00,5243.35155,N,00719.14741,W,AA,09,2.06,63.3,54.1,,*48
$GNGGA,192851.00,5243.35155,N,00719.14741,W,1,09,2.06,63.3,M,54.1,M,,*62
$GNGLL,5243.35155,N,00719.14741,W,192851.00,A,A*6C
$GNGNS,192851.20,5243.35150,N,00719.14736,W,AA,09,2.06,63.3,54.1,,*4F
$GNGGA,192851.20,5243.35150,N,00719.14736,W,1,09,2.06,63.3,M,54.1,M,,*65
$GNGLL,5243.35150,N,00719.14736,W,192851.20,A,A*6B
$GNGNS,192851.40,5243.35141,N,00719.14743,W,AA,09,2.06,63.3,54.1,,*4B
$GNGGA,192851.40,5243.35141,N,00719.14743,W,1,09,2.06,63.3,M,54.1,M,,*61
$GNGLL,5243.35141,N,00719.14743,W,192851.40,A,A*6F
$GNGNS,192851.60,5243.35115,N,00719.14748,W,AA,09,1.97,62.8,54.1,,*42
$GNGGA,192851.60,5243.35115,N,00719.14748,W,1,09,1.97,62.8,M,54.1,M,,*68
$GNGLL,5243.35115,N,00719.14748,W,192851.60,A,A*67
$GNGNS,192851.80,5243.35102,N,00719.14746,W,AA,09,1.97,62.6,54.1,,*4A
$GNGGA,192851.80,5243.35102,N,00719.14746,W,1,09,1.97,62.6,M,54.1,M,,*60
$GNGLL,5243.35102,N,00719.14746,W,192851.80,A,A*61
$GNGNS,192852.00,5243.35092,N,00719.14751,W,AA,09,1.97,62.4,54.1,,*4D
$GNGGA,192852.00,5243.35092,N,00719.14751,W,1,09,1.97,62.4,M,54.1,M,,*67
$GNGLL,5243.35092,N,00719.14751,W,192852.00,A,A*64
$GNGNS,192852.20,5243.35070,N,00719.14744,W,AA,09,1.98,62.1,54.1,,*4D
$GNGGA,192852.20,5243.35070,N,00719.14744,W,1,09,1.98,62.1,M,54.1,M,,*67
$GNGLL,5243.35070,N,00719.14744,W,192852.20,A,A*6E
$GNGNS,192852.40,5243.35055,N,00719.14744,W,AA,09,2.23,61.8,54.1,,*45
$GNGGA,192852.40,5243.35055,N,00719.14744,W,1,09,2.23,61.8,M,54.1,M,,*6F
$GNGLL,5243.35055,N,00719.14744,W,192852.40,A,A*6F
$GNGNS,192852.60,5243.35044,N,00719.14755,W,AA,09,1.97,61.7,54.1,,*44
$GNGGA,192852.60,5243.35044,N,00719.14755,W,1,09,1.97,61.7,M,54.1,M,,*6E
$GNGLL,5243.35044,N,00719.14755,W,192852.60,A,A*6D
$GNGNS,192852.80,5243.35032,N,00719.14764,W,AA,09,1.97,61.7,54.1,,*49
$GNGGA,192852.80,5243.35032,N,00719.14764,W,1,09,1.97,61.7,M,54.1,M,,*63
$GNGLL,5243.35032,N,00719.14764,W,192852.80,A,A*60
$GNGNS,192853.00,5243.35019,N,00719.14766,W,AA,09,1.97,61.3,54.1,,*4F
$GNGGA,192853.00,5243.35019,N,00719.14766,W,1,09,1.97,61.3,M,54.1,M,,*65
$GNGLL,5243.35019,N,00719.14766,W,192853.00,A,A*62
$GNGNS,192853.20,5243.35008,N,00719.14772,W,AA,09,1.97,61.1,54.1,,*4A
$GNGGA,192853.20,5243.35008,N,00719.14772,W,1,09,1.97,61.1,M,54.1,M,,*60
$GNGLL,5243.35008,N,00719.14772,W,192853.20,A,A*65
$GNGNS,192853.40,5243.35002,N,00719.14790,W,AA,09,1.97,61.4,54.1,,*4F
$GNGGA,192853.40,5243.35002,N,00719.14790,W,1,09,1.97,61.4,M,54.1,M,,*65
$GNGLL,5243.35002,N,00719.14790,W,192853.40,A,A*65
$GNGNS,192853.60,5243.34993,N,00719.14811,W,AA,09,1.97,61.4,54.1,,*4B
$GNGGA,192853.60,5243.34993,N,00719.14811,W,1,09,1.97,61.4,M,54.1,M,,*61
$GNGLL,5243.34993,N,00719.14811,W,192853.60,A,A*61
$GNGNS,192853.80,5243.34981,N,00719.14828,W,AA,09,1.97,61.5,54.1,,*4D
$GNGGA,192853.80,5243.34981,N,00719.14828,W,1,09,1.97,61.5,M,54.1,M,,*67
$GNGLL,5243.34981,N,00719.14828,W,192853.80,A,A*66
$GNGNS,192854.00,5243.34972,N,00719.14849,W,AA,09,1.97,61.7,54.1,,*4B
$GNGGA,192854.00,5243.34972,N,00719.14849,W,1,09,1.97,61.7,M,54.1,M,,*61
$GNGLL,5243.34972,N,00719.14849,W,192854.00,A,A*62
$GNGNS,192854.20,5243.34963,N,00719.14871,W,AA,09,1.97,61.9,54.1,,*4C
$GNGGA,192854.20,5243.34963,N,00719.14871,W,1,09,1.97,61.9,M,54.1,M,,*66
$GNGLL,5243.34963,N,00719.14871,W,192854.20,A,A*6B
$GNGNS,192854.40,5243.34954,N,00719.14887,W,AA,09,1.97,61.8,54.1,,*46
$GNGGA,192854.40,5243.34954,N,00719.14887,W,1,09,1.97,61.8,M,54.1,M,,*6C
$GNGLL,5243.34954,N,00719.14887,W,192854.40,A,A*60
$GNGNS,192854.60,5243.34948,N,00719.14909,W,AA,09,1.97,61.8,54.1,,*4E
$GNGGA,192854.60,5243.34948,N,00719.14909,W,1,09,1.97,61.8,M,54.1,M,,*64
$GNGLL,5243.34948,N,00719.14909,W,192854.60,A,A*68
$GNGNS,192854.80,5243.34935,N,00719.14948,W,AA,09,1.97,62.2,54.1,,*46
$GNGGA,192854.80,5243.34935,N,00719.14948,W,1,09,1.97,62.2,M,54.1,M,,*6C
$GNGLL,5243.34935,N,00719.14948,W,192854.80,A,A*69
$GNGNS,192855.00,5243.34928,N,00719.14990,W,AA,09,1.97,62.8,54.1,,*4C
$GNGGA,192855.00,5243.34928,N,00719.14990,W,1,09,1.97,62.8,M,54.1,M,,*66
$GNGLL,5243.34928,N,00719.14990,W,192855.00,A,A*69
$GNGNS,192855.20,5243.34921,N,00719.15025,W,AA,09,1.97,63.4,54.1,,*4C
$GNGGA,192855.20,5243.34921,N,00719.15025,W,1,09,1.97,63.4,M,54.1,M,,*66
$GNGLL,5243.34921,N,00719.15025,W,192855.20,A,A*64
$GNGNS,192855.40,5243.34914,N,00719.15051,W,AA,09,1.97,63.5,54.1,,*4E
$GNGGA,192855.40,5243.34914,N,00719.15051,W,1,09,1.97,63.5,M,54.1,M,,*64
$GNGLL,5243.34914,N,00719.15051,W,192855.40,A,A*67
$GNGNS,192855.60,5243.34906,N,00719.15082,W,AA,09,1.97,63.7,54.1,,*43
$GNGGA,192855.60,5243.34906,N,00719.15082,W,1,09,1.97,63.7,M,54.1,M,,*69
$GNGLL,5243.34906,N,00719.15082,W,192855.60,A,A*68
$GNGNS,192855.80,5243.34899,N,00719.15119,W,AA,09,1.97,64.2,54.1,,*4B
$GNGGA,192855.80,5243.34899,N,00719.15119,W,1,09,1.97,64.2,M,54.1,M,,*61
$GNGLL,5243.34899,N,00719.15119,W,192855.80,A,A*62
$GNGNS,192856.00,5243.34893,N,00719.15150,W,AA,09,1.97,64.5,54.1,,*40
$GNGGA,192856.00,5243.34893,N,00719.15150,W,1,09,1.97,64.5,M,54.1,M,,*6A
$GNGLL,5243.34893,N,00719.15150,W,192856.00,A,A*6E
$GNGNS,192856.20,5243.34891,N,00719.15176,W,AA,09,1.97,64.9,54.1,,*48
$GNGGA,192856.20,5243.34891,N,00719.15176,W,1,09,1.97,64.9,M,54.1,M,,*62
$GNGLL,5243.34891,N,00719.15176,W,192856.20,A,A*6A
$GNGNS,192856.40,5243.34887,N,00719.15204,W,AA,09,1.97,65.3,54.1,,*44
$GNGGA,192856.40,5243.34887,N,00719.15204,W,1,09,1.97,65.3,M,54.1,M,,*6E
$GNGLL,5243.34887,N,00719.15204,W,192856.40,A,A*6D
$GNGNS,192856.60,5243.34877,N,00719.15240,W,AA,09,1.97,65.4,54.1,,*4E
$GNGGA,192856.60,5243.34877,N,00719.15240,W,1,09,1.97,65.4,M,54.1,M,,*64
$GNGLL,5243.34877,N,00719.15240,W,192856.60,A,A*60
$GNGNS,192856.80,5243.34874,N,00719.15271,W,AA,09,1.97,65.8,54.1,,*4D
$GNGGA,192856.80,5243.34874,N,00719.15271,W,1,09,1.97,65.8,M,54.1,M,,*67
$GNGLL,5243.34874,N,00719.15271,W,192856.80,A,A*6F
$GNGNS,192857.00,5243.34869,N,00719.15298,W,AA,09,1.97,66.0,54.1,,*44
$GNGGA,192857.00,5243.34869,N,00719.15298,W,1,09,1.97,66.0,M,54.1,M,,*6E
$GNGLL,5243.34869,N,00719.15298,W,192857.00,A,A*6D
$GNGNS,192857.20,5243.34866,N,00719.15321,W,AA,09,1.97,66.0,54.1,,*4A
$GNGGA,192857.20,5243.34866,N,00719.15321,W,1,09,1.97,66.0,M,54.1,M,,*60
$GNGLL,5243.34866,N,00719.15321,W,192857.20,A,A*63
$GNGNS,192857.40,5243.34864,N,00719.15340,W,AA,09,1.97,66.1,54.1,,*48
$GNGGA,192857.40,5243.34864,N,00719.15340,W,1,09,1.97,66.1,M,54.1,M,,*62
$GNGLL,5243.34864,N,00719.15340,W,192857.40,A,A*60
$GNGNS,192857.60,5243.34862,N,00719.15360,W,AA,09,1.97,66.1,54.1,,*4E
$GNGGA,192857.60,5243.34862,N,00719.15360,W,1,09,1.97,66.1,M,54.1,M,,*64
$GNGLL,5243.34862,N,00719.15360,W,192857.60,A,A*66
$GNGNS,192857.80,5243.34859,N,00719.15389,W,AA,09,1.97,66.2,54.1,,*4C
$GNGGA,192857.80,5243.34859,N,00719.15389,W,1,09,1.97,66.2,M,54.1,M,,*66
$GNGLL,5243.34859,N,00719.15389,W,192857.80,A,A*67
$GNGNS,192858.00,5243.34856,N,00719.15420,W,AA,09,1.97,66.4,54.1,,*46
$GNGGA,192858.00,5243.34856,N,00719.15420,W,1,09,1.97,66.4,M,54.1,M,,*6C
$GNGLL,5243.34856,N,00719.15420,W,192858.00,A,A*6B
$GNGNS,192858.20,5243.34851,N,00719.15447,W,AA,09,1.97,66.6,54.1,,*40
$GNGGA,192858.20,5243.34851,N,00719.15447,W,1,09,1.97,66.6,M,54.1,M,,*6A
$GNGLL,5243.34851,N,00719.15447,W,192858.20,A,A*6F
$GNGNS,192858.40,5243.34848,N,00719.15468,W,AA,09,1.97,66.6,54.1,,*43
$GNGGA,192858.40,5243.34848,N,00719.15468,W,1,09,1.97,66.6,M,54.1,M,,*69
$GNGLL,5243.34848,N,00719.15468,W,192858.40,A,A*6C
$GNGNS,192858.60,5243.34847,N,00719.15493,W,AA,09,1.97,66.6,54.1,,*4A
$GNGGA,192858.60,5243.34847,N,00719.15493,W,1,09,1.97,66.6,M,54.1,M,,*60
$GNGLL,5243.34847,N,00719.15493,W,192858.60,A,A*65
$GNGNS,192858.80,5243.34846,N,00719.15519,W,AA,09,1.97,66.7,54.1,,*47
$GNGGA,192858.80,5243.34846,N,00719.15519,W,1,09,1.97,66.7,M,54.1,M,,*6D
$GNGLL,5243.34846,N,00719.15519,W,192858.80,A,A*69
$GNGNS,192859.00,5243.34842,N,00719.15543,W,AA,09,1.97,66.8,54.1,,*4A
$GNGGA,192859.00,5243.34842,N,00719.15543,W,1,09,1.97,66.8,M,54.1,M,,*60
$GNGLL,5243.34842,N,00719.15543,W,192859.00,A,A*6B
$GNGNS,192859.20,5243.34840,N,00719.15566,W,AA,09,1.97,66.9,54.1,,*4C
$GNGGA,192859.20,5243.34840,N,00719.15566,W,1,09,1.97,66.9,M,54.1,M,,*66
$GNGLL,5243.34840,N,00719.15566,W,192859.20,A,A*6C
$GNGNS,192859.40,5243.34836,N,00719.15590,W,AA,09,1.97,67.0,54.1,,*4A
$GNGGA,192859.40,5243.34836,N,00719.15590,W,1,09,1.97,67.0,M,54.1,M,,*60
$GNGLL,5243.34836,N,00719.15590,W,192859.40,A,A*62
$GNGNS,192859.60,5243.34836,N,00719.15616,W,AA,09,1.97,67.0,54.1,,*45
$GNGGA,192859.60,5243.34836,N,00719.15616,W,1,09,1.97,67.0,M,54.1,M,,*6F
$GNGLL,5243.34836,N,00719.15616,W,192859.60,A,A*6D
$GNGNS,192859.80,5243.34834,N,00719.15641,W,AA,09,1.97,67.2,54.1,,*49
$GNGGA,192859.80,5243.34834,N,00719.15641,W,1,09,1.97,67.2,M,54.1,M,,*63
$GNGLL,5243.34834,N,00719.15641,W,192859.80,A,A*63
$GNGNS,192900.00,5243.34828,N,00719.15661,W,AA,09,1.97,67.2,54.1,,*43
$GNGGA,192900.00,5243.34828,N,00719.15661,W,1,09,1.97,67.2,M,54.1,M,,*69
$GNGLL,5243.34828,N,00719.15661,W,192900.00,A,A*69
$GNGNS,192900.20,5243.34823,N,00719.15678,W,AA,09,1.97,67.2,54.1,,*42
$GNGGA,192900.20,5243.34823,N,00719.15678,W,1,09,1.97,67.2,M,54.1,M,,*68
$GNGLL,5243.34823,N,00719.15678,W,192900.20,A,A*68
$GNGNS,192900.40,5243.34818,N,00719.15697,W,AA,09,1.97,67.2,54.1,,*4D
$GNGGA,192900.40,5243.34818,N,00719.15697,W,1,09,1.97,67.2,M,54.1,M,,*67
$GNGLL,5243.34818,N,00719.15697,W,192900.40,A,A*67
$GNGNS,192900.60,5243.34813,N,00719.15716,W,AA,09,1.97,67.2,54.1,,*4C
$GNGGA,192900.60,5243.34813,N,00719.15716,W,1,09,1.97,67.2,M,54.1,M,,*66
$GNGLL,5243.34813,N,00719.15716,W,192900.60,A,A*66
$GNGNS,192900.80,5243.34809,N,00719.15736,W,AA,09,1.97,67.2,54.1,,*4B
$GNGGA,192900.80,5243.34809,N,00719.15736,W,1,09,1.97,67.2,M,54.1,M,,*61
$GNGLL,5243.34809,N,00719.15736,W,192900.80,A,A*61
$GNGNS,192901.00,5243.34799,N,00719.15756,W,AA,09,1.97,67.2,54.1,,*42
$GNGGA,192901.00,5243.34799,N,00719.15756,W,1,09,1.97,67.2,M,54.1,M,,*68
$GNGLL,5243.34799,N,00719.15756,W,192901.00,A,A*68
$GNGNS,192901.20,5243.34792,N,00719.15775,W,AA,09,1.97,67.1,54.1,,*49
$GNGGA,192901.20,5243.34792,N,00719.15775,W,1,09,1.97,67.1,M,54.1,M,,*63
$GNGLL,5243.34792,N,00719.15775,W,192901.20,A,A*60
$GNGNS,192901.40,5243.34786,N,00719.15787,W,AA,09,1.97,67.0,54.1,,*46
$GNGGA,192901.40,5243.34786,N,00719.15787,W,1,09,1.97,67.0,M,54.1,M,,*6C
$GNGLL,5243.34786,N,00719.15787,W,192901.40,A,A*6E
$GNGNS,192901.60,5243.34782,N,00719.15799,W,AA,09,1.97,67.0,54.1,,*4F
$GNGGA,192901.60,5243.34782,N,00719.15799,W,1,09,1.97,67.0,M,54.1,M,,*65
$GNGLL,5243.34782,N,00719.15799,W,192901.60,A,A*67
$GNGNS,192901.80,5243.34776,N,00719.15812,W,AA,09,1.97,66.9,54.1,,*4E
$GNGGA,192901.80,5243.34776,N,00719.15812,W,1,09,1.97,66.9,M,54.1,M,,*64
$GNGLL,5243.34776,N,00719.15812,W,192901.80,A,A*6E
$GNGNS,192902.00,5243.34768,N,00719.15823,W,AA,09,1.97,66.9,54.1,,*48
$GNGGA,192902.00,5243.34768,N,00719.15823,W,1,09,1.97,66.9,M,54.1,M,,*62
$GNGLL,5243.34768,N,00719.15823,W,192902.00,A,A*68
$GNGNS,192902.20,5243.34761,N,00719.15835,W,AA,09,1.97,66.8,54.1,,*45
$GNGGA,192902.20,5243.34761,N,00719.15835,W,1,09,1.97,66.8,M,54.1,M,,*6F
$GNGLL,5243.34761,N,00719.15835,W,192902.20,A,A*64
$GNGNS,192902.40,5243.34754,N,00719.15849,W,AA,09,1.97,66.8,54.1,,*4E
$GNGGA,192902.40,5243.34754,N,00719.15849,W,1,09,1.97,66.8,M,54.1,M,,*64
$GNGLL,5243.34754,N,00719.15849,W,192902.40,A,A*6F
$GNGNS,192902.60,5243.34746,N,00719.15864,W,AA,09,1.97,66.8,54.1,,*40
$GNGGA,192902.60,5243.34746,N,00719.15864,W,1,09,1.97,66.8,M,54.1,M,,*6A
$GNGLL,5243.34746,N,00719.15864,W,192902.60,A,A*61
$GNGNS,192902.80,5243.34740,N,00719.15879,W,AA,09,1.97,66.8,54.1,,*44
$GNGGA,192902.80,5243.34740,N,00719.15879,W,1,09,1.97,66.8,M,54.1,M,,*6E
$GNGLL,5243.34740,N,00719.15879,W,192902.80,A,A*65
$GNGNS,192903.00,5243.34731,N,00719.15894,W,AA,09,1.97,66.8,54.1,,*48
$GNGGA,192903.00,5243.34731,N,00719.15894,W,1,09,1.97,66.8,M,54.1,M,,*62
$GNGLL,5243.34731,N,00719.15894,W,192903.00,A,A*69
$GNGNS,192903.20,5243.34723,N,00719.15909,W,AA,09,1.97,66.7,54.1,,*43
$GNGGA,192903.20,5243.34723,N,00719.15909,W,1,09,1.97,66.7,M,54.1,M,,*69
$GNGLL,5243.34723,N,00719.15909,W,192903.20,A,A*6D
$GNGNS,192903.40,5243.34714,N,00719.15926,W,AA,09,1.97,66.8,54.1,,*43
$GNGGA,192903.40,5243.34714,N,00719.15926,W,1,09,1.97,66.8,M,54.1,M,,*69
$GNGLL,5243.34714,N,00719.15926,W,192903.40,A,A*62
$GNGNS,192903.60,5243.34708,N,00719.15944,W,AA,09,1.97,66.8,54.1,,*48
$GNGGA,192903.60,5243.34708,N,00719.15944,W,1,09,1.97,66.8,M,54.1,M,,*62
$GNGLL,5243.34708,N,00719.15944,W,192903.60,A,A*69
$GNGNS,192903.80,5243.34701,N,00719.15962,W,AA,09,1.97,66.8,54.1,,*4B
$GNGGA,192903.80,5243.34701,N,00719.15962,W,1,09,1.97,66.8,M,54.1,M,,*61
$GNGLL,5243.34701,N,00719.15962,W,192903.80,A,A*6A
$GNGNS,192904.00,5243.34692,N,00719.15979,W,AA,09,1.97,66.8,54.1,,*45
$GNGGA,192904.00,5243.34692,N,00719.15979,W,1,09,1.97,66.8,M,54.1,M,,*6F
$GNGLL,5243.34692,N,00719.15979,W,192904.00,A,A*64
$GNGNS,192904.20,5243.34685,N,00719.15995,W,AA,09,1.97,66.8,54.1,,*43
$GNGGA,192904.20,5243.34685,N,00719.15995,W,1,09,1.97,66.8,M,54.1,M,,*69
$GNGLL,5243.34685,N,00719.15995,W,192904.20,A,A*62
$GNGNS,192904.40,5243.34676,N,00719.16013,W,AA,09,1.97,66.7,54.1,,*42
$GNGGA,192904.40,5243.34676,N,00719.16013,W,1,09,1.97,66.7,M,54.1,M,,*68
$GNGLL,5243.34676,N,00719.16013,W,192904.40,A,A*6C
$GNGNS,192904.60,5243.34669,N,00719.16030,W,AA,09,1.97,66.7,54.1,,*4F
$GNGGA,192904.60,5243.34669,N,00719.16030,W,1,09,1.97,66.7,M,54.1,M,,*65
$GNGLL,5243.34669,N,00719.16030,W,192904.60,A,A*61
$GNGNS,192904.80,5243.34662,N,00719.16049,W,AA,09,1.97,66.7,54.1,,*44
$GNGGA,192904.80,5243.34662,N,00719.16049,W,1,09,1.97,66.7,M,54.1,M,,*6E
$GNGLL,5243.34662,N,00719.16049,W,192904.80,A,A*6A
$GNGNS,192905.00,5243.34653,N,00719.16069,W,AA,09,1.97,66.7,54.1,,*4D
$GNGGA,192905.00,5243.34653,N,00719.16069,W,1,09,1.97,66.7,M,54.1,M,,*67
$GNGLL,5243.34653,N,00719.16069,W,192905.00,A,A*63
$GNGNS,192905.20,5243.34646,N,00719.16087,W,AA,09,1.97,66.6,54.1,,*4A
$GNGGA,192905.20,5243.34646,N,00719.16087,W,1,09,1.97,66.6,M,54.1,M,,*60
$GNGLL,5243.34646,N,00719.16087,W,192905.20,A,A*65
$GNGNS,192905.40,5243.34639,N,00719.16105,W,AA,09,1.97,66.5,54.1,,*4C
$GNGGA,192905.40,5243.34639,N,00719.16105,W,1,09,1.97,66.5,M,54.1,M,,*66
$GNGLL,5243.34639,N,00719.16105,W,192905.40,A,A*60
$GNGNS,192905.60,5243.34633,N,00719.16123,W,AA,09,1.97,66.4,54.1,,*41
$GNGGA,192905.60,5243.34633,N,00719.16123,W,1,09,1.97,66.4,M,54.1,M,,*6B
$GNGLL,5243.34633,N,00719.16123,W,192905.60,A,A*6C
$GNGNS,192905.80,5243.34628,N,00719.16141,W,AA,09,1.97,66.4,54.1,,*41
$GNGGA,192905.80,5243.34628,N,00719.16141,W,1,09,1.97,66.4,M,54.1,M,,*6B
$GNGLL,5243.34628,N,00719.16141,W,192905.80,A,A*6C
$GNGNS,192906.00,5243.34621,N,00719.16159,W,AA,09,1.97,66.3,54.1,,*4D
$GNGGA,192906.00,5243.34621,N,00719.16159,W,1,09,1.97,66.3,M,54.1,M,,*67
$GNGLL,5243.34621,N,00719.16159,W,192906.00,A,A*67
$GNGNS,192906.20,5243.34627,N,00719.16175,W,AA,11,1.07,66.6,54.1,,*42
$GNGGA,192906.20,5243.34627,N,00719.16175,W,1,11,1.07,66.6,M,54.1,M,,*68
$GNGLL,5243.34627,N,00719.16175,W,192906.20,A,A*6D
$GNGNS,192906.40,5243.34631,N,00719.16193,W,AA,11,1.07,66.9,54.1,,*44
$GNGGA,192906.40,5243.34631,N,00719.16193,W,1,11,1.07,66.9,M,54.1,M,,*6E
$GNGLL,5243.34631,N,00719.16193,W,192906.40,A,A*64
$GNGNS,192906.60,5243.34636,N,00719.16210,W,AA,11,1.07,67.2,54.1,,*43
$GNGGA,192906.60,5243.34636,N,00719.16210,W,1,11,1.07,67.2,M,54.1,M,,*69
$GNGLL,5243.34636,N,00719.16210,W,192906.60,A,A*69
$GNGNS,192906.80,5243.34638,N,00719.16228,W,AA,11,1.07,67.4,54.1,,*4E
$GNGGA,192906.80,5243.34638,N,00719.16228,W,1,11,1.07,67.4,M,54.1,M,,*64
$GNGLL,5243.34638,N,00719.16228,W,192906.80,A,A*62
$GNGNS,192907.00,5243.34642,N,00719.16247,W,AA,11,1.07,67.6,54.1,,*41
$GNGGA,192907.00,5243.34642,N,00719.16247,W,1,11,1.07,67.6,M,54.1,M,,*6B
$GNGLL,5243.34642,N,00719.16247,W,192907.00,A,A*6F
$GNGNS,192907.20,5243.34644,N,00719.16266,W,AA,11,1.07,67.8,54.1,,*48
$GNGGA,192907.20,5243.34644,N,00719.16266,W,1,11,1.07,67.8,M,54.1,M,,*62
$GNGLL,5243.34644,N,00719.16266,W,192907.20,A,A*68
$GNGNS,192907.40,5243.34647,N,00719.16284,W,AA,11,1.07,68.0,54.1,,*46
$GNGGA,192907.40,5243.34647,N,00719.16284,W,1,11,1.07,68.0,M,54.1,M,,*6C
$GNGLL,5243.34647,N,00719.16284,W,192907.40,A,A*61
$GNGNS,192907.60,5243.34649,N,00719.16302,W,AA,11,1.07,68.2,54.1,,*47
$GNGGA,192907.60,5243.34649,N,00719.16302,W,1,11,1.07,68.2,M,54.1,M,,*6D
$GNGLL,5243.34649,N,00719.16302,W,192907.60,A,A*62
$GNGNS,192907.80,5243.34651,N,00719.16321,W,AA,11,1.07,68.3,54.1,,*40
$GNGGA,192907.80,5243.34651,N,00719.16321,W,1,11,1.07,68.3,M,54.1,M,,*6A
$GNGLL,5243.34651,N,00719.16321,W,192907.80,A,A*64
$GNGNS,192908.00,5243.34649,N,00719.16341,W,AA,11,1.07,68.4,54.1,,*4F
$GNGGA,192908.00,5243.34649,N,00719.16341,W,1,11,1.07,68.4,M,54.1,M,,*65
$GNGLL,5243.34649,N,00719.16341,W,192908.00,A,A*6C
$GNGNS,192908.20,5243.34650,N,00719.16359,W,AA,13,1.02,68.4,54.1,,*4B
$GNGGA,192908.20,5243.34650,N,00719.16359,W,1,12,1.02,68.4,M,54.1,M,,*60
$GNGLL,5243.34650,N,00719.16359,W,192908.20,A,A*6F
$GNGNS,192908.40,5243.34651,N,00719.16380,W,AA,13,1.02,68.4,54.1,,*48
$GNGGA,192908.40,5243.34651,N,00719.16380,W,1,12,1.02,68.4,M,54.1,M,,*63
$GNGLL,5243.34651,N,00719.16380,W,192908.40,A,A*6C
$GNGNS,192908.60,5243.34652,N,00719.16400,W,AA,13,1.02,68.5,54.1,,*47
$GNGGA,192908.60,5243.34652,N,00719.16400,W,1,12,1.02,68.5,M,54.1,M,,*6C
$GNGLL,5243.34652,N,00719.16400,W,192908.60,A,A*62
$GNGNS,192908.80,5243.34655,N,00719.16421,W,AA,13,1.02,68.5,54.1,,*4D
$GNGGA,192908.80,5243.34655,N,00719.16421,W,1,12,1.02,68.5,M,54.1,M,,*66
$GNGLL,5243.34655,N,00719.16421,W,192908.80,A,A*68
$GNGNS,192909.00,5243.34658,N,00719.16442,W,AA,13,1.02,68.6,54.1,,*4F
$GNGGA,192909.00,5243.34658,N,00719.16442,W,1,12,1.02,68.6,M,54.1,M,,*64
$GNGLL,5243.34658,N,00719.16442,W,192909.00,A,A*69
$GNGNS,192909.20,5243.34660,N,00719.16463,W,AA,13,1.02,68.6,54.1,,*45
$GNGGA,192909.20,5243.34660,N,00719.16463,W,1,12,1.02,68.6,M,54.1,M,,*6E
$GNGLL,5243.34660,N,00719.16463,W,192909.20,A,A*63
$GNGNS,192909.40,5243.34660,N,00719.16484,W,AA,13,1.02,68.6,54.1,,*4A
$GNGGA,192909.40,5243.34660,N,00719.16484,W,1,12,1.02,68.6,M,54.1,M,,*61
$GNGLL,5243.34660,N,00719.16484,W,192909.40,A,A*6C
$GNGNS,192909.60,5243.34663,N,00719.16505,W,AA,13,1.02,68.7,54.1,,*42
$GNGGA,192909.60,5243.34663,N,00719.16505,W,1,12,1.02,68.7,M,54.1,M,,*69
$GNGLL,5243.34663,N,00719.16505,W,192909.60,A,A*65
$GNGNS,192909.80,5243.34665,N,00719.16527,W,AA,13,1.02,68.8,54.1,,*45
$GNGGA,192909.80,5243.34665,N,00719.16527,W,1,12,1.02,68.8,M,54.1,M,,*6E
$GNGLL,5243.34665,N,00719.16527,W,192909.80,A,A*6D
$GNGNS,192910.00,5243.34667,N,00719.16548,W,AA,13,1.02,68.9,54.1,,*4F
$GNGGA,192910.00,5243.34667,N,00719.16548,W,1,12,1.02,68.9,M,54.1,M,,*64
$GNGLL,5243.34667,N,00719.16548,W,192910.00,A,A*66
$GNGNS,192910.20,5243.34668,N,00719.16570,W,AA,13,1.02,69.0,54.1,,*41
$GNGGA,192910.20,5243.34668,N,00719.16570,W,1,12,1.02,69.0,M,54.1,M,,*6A
$GNGLL,5243.34668,N,00719.16570,W,192910.20,A,A*60
$GNGNS,192910.40,5243.34669,N,00719.16592,W,AA,13,1.02,69.0,54.1,,*4A
$GNGGA,192910.40,5243.34669,N,00719.16592,W,1,12,1.02,69.0,M,54.1,M,,*61
$GNGLL,5243.34669,N,00719.16592,W,192910.40,A,A*6B
$GNGNS,192910.60,5243.34670,N,00719.16614,W,AA,13,1.02,69.1,54.1,,*4C
$GNGGA,192910.60,5243.34670,N,00719.16614,W,1,12,1.02,69.1,M,54.1,M,,*67
$GNGLL,5243.34670,N,00719.16614,W,192910.60,A,A*6C
$GNGNS,192910.80,5243.34671,N,00719.16636,W,AA,13,1.02,69.1,54.1,,*43
$GNGGA,192910.80,5243.34671,N,00719.16636,W,1,12,1.02,69.1,M,54.1,M,,*68
$GNGLL,5243.34671,N,00719.16636,W,192910.80,A,A*63
$GNGNS,192911.00,5243.34672,N,00719.16661,W,AA,13,1.02,69.1,54.1,,*4B
$GNGGA,192911.00,5243.34672,N,00719.16661,W,1,12,1.02,69.1,M,54.1,M,,*60
$GNGLL,5243.34672,N,00719.16661,W,192911.00,A,A*6B
$GNGNS,192911.20,5243.34671,N,00719.16684,W,AA,13,1.02,69.1,54.1,,*41
$GNGGA,192911.20,5243.34671,N,00719.16684,W,1,12,1.02,69.1,M,54.1,M,,*6A
$GNGLL,5243.34671,N,00719.16684,W,192911.20,A,A*61
$GNGNS,192911.40,5243.34672,N,00719.16707,W,AA,13,1.02,69.1,54.1,,*4E
$GNGGA,192911.40,5243.34672,N,00719.16707,W,1,12,1.02,69.1,M,54.1,M,,*65
$GNGLL,5243.34672,N,00719.16707,W,192911.40,A,A*6E
$GNGNS,192911.60,5243.34672,N,00719.16729,W,AA,13,1.02,69.1,54.1,,*40
$GNGGA,192911.60,5243.34672,N,00719.16729,W,1,12,1.02,69.1,M,54.1,M,,*6B
$GNGLL,5243.34672,N,00719.16729,W,192911.60,A,A*60
$GNGNS,192911.80,5243.34673,N,00719.16752,W,AA,13,1.02,69.1,54.1,,*43
$GNGGA,192911.80,5243.34673,N,00719.16752,W,1,12,1.02,69.1,M,54.1,M,,*68
$GNGLL,5243.34673,N,00719.16752,W,192911.80,A,A*63
$GNGNS,192912.00,5243.34675,N,00719.16776,W,AA,13,1.02,69.0,54.1,,*49
$GNGGA,192912.00,5243.34675,N,00719.16776,W,1,12,1.02,69.0,M,54.1,M,,*62
$GNGLL,5243.34675,N,00719.16776,W,192912.00,A,A*68
$GNGNS,192912.20,5243.34676,N,00719.16798,W,AA,13,1.02,69.0,54.1,,*48
$GNGGA,192912.20,5243.34676,N,00719.16798,W,1,12,1.02,69.0,M,54.1,M,,*63
$GNGLL,5243.34676,N,00719.16798,W,192912.20,A,A*69
$GNGNS,192912.40,5243.34678,N,00719.16822,W,AA,13,1.02,69.0,54.1,,*4E
$GNGGA,192912.40,5243.34678,N,00719.16822,W,1,12,1.02,69.0,M,54.1,M,,*65
$GNGLL,5243.34678,N,00719.16822,W,192912.40,A,A*6F
$GNGNS,192912.60,5243.34679,N,00719.16844,W,AA,13,1.02,69.1,54.1,,*4C
$GNGGA,192912.60,5243.34679,N,00719.16844,W,1,12,1.02,69.1,M,54.1,M,,*67
$GNGLL,5243.34679,N,00719.16844,W,192912.60,A,A*6C
$GNGNS,192912.80,5243.34682,N,00719.16866,W,AA,13,1.02,69.1,54.1,,*46
$GNGGA,192912.80,5243.34682,N,00719.16866,W,1,12,1.02,69.1,M,54.1,M,,*6D
$GNGLL,5243.34682,N,00719.16866,W,192912.80,A,A*66
$GNGNS,192913.00,5243.34686,N,00719.16891,W,AA,13,1.02,69.1,54.1,,*43
$GNGGA,192913.00,5243.34686,N,00719.16891,W,1,12,1.02,69.1,M,54.1,M,,*68
$GNGLL,5243.34686,N,00719.16891,W,192913.00,A,A*63
$GNGNS,192913.20,5243.34689,N,00719.16915,W,AA,13,1.02,69.1,54.1,,*43
$GNGGA,192913.20,5243.34689,N,00719.16915,W,1,12,1.02,69.1,M,54.1,M,,*68
$GNGLL,5243.34689,N,00719.16915,W,192913.20,A,A*63
$GNGNS,192913.40,5243.34691,N,00719.16939,W,AA,13,1.02,69.1,54.1,,*42
$GNGGA,192913.40,5243.34691,N,00719.16939,W,1,12,1.02,69.1,M,54.1,M,,*69
$GNGLL,5243.34691,N,00719.16939,W,192913.40,A,A*62
$GNGNS,192913.60,5243.34694,N,00719.16964,W,AA,13,1.02,69.0,54.1,,*4C
$GNGGA,192913.60,5243.34694,N,00719.16964,W,1,12,1.02,69.0,M,54.1,M,,*67
$GNGLL,5243.34694,N,00719.16964,W,192913.60,A,A*6D
$GNGNS,192913.80,5243.34698,N,00719.16987,W,AA,13,1.02,69.0,54.1,,*43
$GNGGA,192913.80,5243.34698,N,00719.16987,W,1,12,1.02,69.0,M,54.1,M,,*68
$GNGLL,5243.34698,N,00719.16987,W,192913.80,A,A*62
$GNGNS,192914.00,5243.34703,N,00719.17011,W,AA,13,1.02,69.0,54.1,,*48
$GNGGA,192914.00,5243.34703,N,00719.17011,W,1,12,1.02,69.0,M,54.1,M,,*63
$GNGLL,5243.34703,N,00719.17011,W,192914.00,A,A*69
$GNGNS,192914.20,5243.34706,N,00719.17036,W,AA,13,1.02,69.0,54.1,,*4A
$GNGGA,192914.20,5243.34706,N,00719.17036,W,1,12,1.02,69.0,M,54.1,M,,*61
$GNGLL,5243.34706,N,00719.17036,W,192914.20,A,A*6B
$GNGNS,192914.40,5243.34709,N,00719.17061,W,AA,13,1.02,68.9,54.1,,*49
$GNGGA,192914.40,5243.34709,N,00719.17061,W,1,12,1.02,68.9,M,54.1,M,,*62
$GNGLL,5243.34709,N,00719.17061,W,192914.40,A,A*60
$GNGNS,192914.60,5243.34712,N,00719.17085,W,AA,13,1.02,68.9,54.1,,*4B
$GNGGA,192914.60,5243.34712,N,00719.17085,W,1,12,1.02,68.9,M,54.1,M,,*60
$GNGLL,5243.34712,N,00719.17085,W,192914.60,A,A*62
$GNGNS,192914.80,5243.34716,N,00719.17108,W,AA,13,1.02,69.0,54.1,,*4D
$GNGGA,192914.80,5243.34716,N,00719.17108,W,1,12,1.02,69.0,M,54.1,M,,*66
$GNGLL,5243.34716,N,00719.17108,W,192914.80,A,A*6C
$GNGNS,192915.00,5243.34722,N,00719.17131,W,AA,13,1.02,69.0,54.1,,*49
$GNGGA,192915.00,5243.34722,N,00719.17131,W,1,12,1.02,69.0,M,54.1,M,,*62
$GNGLL,5243.34722,N,00719.17131,W,192915.00,A,A*68
$GNGNS,192915.20,5243.34728,N,00719.17152,W,AA,13,1.02,69.0,54.1,,*44
$GNGGA,192915.20,5243.34728,N,00719.17152,W,1,12,1.02,69.0,M,54.1,M,,*6F
$GNGLL,5243.34728,N,00719.17152,W,192915.20,A,A*65
$GNGNS,192915.40,5243.34732,N,00719.17174,W,AA,13,1.02,69.1,54.1,,*4C
$GNGGA,192915.40,5243.34732,N,00719.17174,W,1,12,1.02,69.1,M,54.1,M,,*67
$GNGLL,5243.34732,N,00719.17174,W,192915.40,A,A*6C
$GNGNS,192915.60,5243.34737,N,00719.17196,W,AA,13,1.02,69.1,54.1,,*47
$GNGGA,192915.60,5243.34737,N,00719.17196,W,1,12,1.02,69.1,M,54.1,M,,*6C
$GNGLL,5243.34737,N,00719.17196,W,192915.60,A,A*67
$GNGNS,192915.80,5243.34742,N,00719.17218,W,AA,13,1.02,69.2,54.1,,*4D
$GNGGA,192915.80,5243.34742,N,00719.17218,W,1,12,1.02,69.2,M,54.1,M,,*66
$GNGLL,5243.34742,N,00719.17218,W,192915.80,A,A*6E
$GNGNS,192916.00,5243.34749,N,00719.17240,W,AA,13,1.02,69.2,54.1,,*40
$GNGGA,192916.00,5243.34749,N,00719.17240,W,1,12,1.02,69.2,M,54.1,M,,*6B
$GNGLL,5243.34749,N,00719.17240,W,192916.00,A,A*63
$GNGNS,192916.20,5243.34755,N,00719.17262,W,AA,13,1.02,69.2,54.1,,*4F
$GNGGA,192916.20,5243.34755,N,00719.17262,W,1,12,1.02,69.2,M,54.1,M,,*64
$GNGLL,5243.34755,N,00719.17262,W,192916.20,A,A*6C
$GNGNS,192916.40,5243.34761,N,00719.17285,W,AA,13,1.02,69.2,54.1,,*47
$GNGGA,192916.40,5243.34761,N,00719.17285,W,1,12,1.02,69.2,M,54.1,M,,*6C
$GNGLL,5243.34761,N,00719.17285,W,192916.40,A,A*64
$GNGNS,192916.60,5243.34767,N,00719.17307,W,AA,13,1.02,69.3,54.1,,*49
$GNGGA,192916.60,5243.34767,N,00719.17307,W,1,12,1.02,69.3,M,54.1,M,,*62
$GNGLL,5243.34767,N,00719.17307,W,192916.60,A,A*6B
$GNGNS,192916.80,5243.34773,N,00719.17330,W,AA,13,1.02,69.3,54.1,,*46
$GNGGA,192916.80,5243.34773,N,00719.17330,W,1,12,1.02,69.3,M,54.1,M,,*6D
$GNGLL,5243.34773,N,00719.17330,W,192916.80,A,A*64
$GNGNS,192917.00,5243.34779,N,00719.17352,W,AA,13,1.02,69.3,54.1,,*41
$GNGGA,192917.00,5243.34779,N,00719.17352,W,1,12,1.02,69.3,M,54.1,M,,*6A
$GNGLL,5243.34779,N,00719.17352,W,192917.00,A,A*63
$GNGNS,192917.20,5243.34786,N,00719.17373,W,AA,13,1.02,69.3,54.1,,*40
$GNGGA,192917.20,5243.34786,N,00719.17373,W,1,12,1.02,69.3,M,54.1,M,,*6B
$GNGLL,5243.34786,N,00719.17373,W,192917.20,A,A*62
$GNGNS,192917.40,5243.34794,N,00719.17395,W,AA,13,1.02,69.4,54.1,,*4A
$GNGGA,192917.40,5243.34794,N,00719.17395,W,1,12,1.02,69.4,M,54.1,M,,*61
$GNGLL,5243.34794,N,00719.17395,W,192917.40,A,A*6F
$GNGNS,192917.60,5243.34801,N,00719.17417,W,AA,13,1.02,69.4,54.1,,*46
$GNGGA,192917.60,5243.34801,N,00719.17417,W,1,12,1.02,69.4,M,54.1,M,,*6D
$GNGLL,5243.34801,N,00719.17417,W,192917.60,A,A*63
$GNGNS,192917.80,5243.34807,N,00719.17438,W,AA,13,1.02,69.4,54.1,,*43
$GNGGA,192917.80,5243.34807,N,00719.17438,W,1,12,1.02,69.4,M,54.1,M,,*68
$GNGLL,5243.34807,N,00719.17438,W,192917.80,A,A*66
$GNGNS,192918.00,5243.34812,N,00719.17460,W,AA,13,1.02,69.4,54.1,,*4D
$GNGGA,192918.00,5243.34812,N,00719.17460,W,1,12,1.02,69.4,M,54.1,M,,*66
$GNGLL,5243.34812,N,00719.17460,W,192918.00,A,A*68
$GNGNS,192918.20,5243.34818,N,00719.17482,W,AA,13,1.02,69.4,54.1,,*49
$GNGGA,192918.20,5243.34818,N,00719.17482,W,1,12,1.02,69.4,M,54.1,M,,*62
$GNGLL,5243.34818,N,00719.17482,W,192918.20,A,A*6C
$GNGNS,192918.40,5243.34825,N,00719.17503,W,AA,13,1.02,69.4,54.1,,*49
$GNGGA,192918.40,5243.34825,N,00719.17503,W,1,12,1.02,69.4,M,54.1,M,,*62
$GNGLL,5243.34825,N,00719.17503,W,192918.40,A,A*6C
$GNGNS,192918.60,5243.34832,N,00719.17525,W,AA,13,1.02,69.4,54.1,,*49
$GNGGA,192918.60,5243.34832,N,00719.17525,W,1,12,1.02,69.4,M,54.1,M,,*62
$GNGLL,5243.34832,N,00719.17525,W,192918.60,A,A*6C
