$GNGSA,A,1,02,12,25,29,31,32,,,,,,,1.4,0.7,1.3,1*3D
$GNGSA,A,1,65,66,74,83,84,85,,,,,,,1.4,0.7,1.3,2*3A
$GNGSA,A,1,02,03,08,12,24,25,,,,,,,1.4,0.7,1.3,3*3A
$GPGSV,3,1,10,02,29,073,43,03,06,328,36,06,13,029,34,12,40,075,46,0*6A
$GPGSV,3,2,10,24,07,135,35,25,78,070,47,26,10,264,36,29,53,174,44,0*66
$GPGSV,3,3,10,31,46,297,44,32,37,232,43,,,,,,,,,0*69
$GLGSV,2,1,08,65,21,252,39,66,28,318,41,73,05,101,31,74,50,087,45,0*73
$GLGSV,2,2,08,76,11,290,40,83,16,021,30,84,52,084,35,85,25,159,43,0*72
$GAGSV,2,1,07,02,22,270,38,03,35,248,39,05,11,199,33,08,27,310,37,0*72
$GAGSV,2,2,07,12,35,083,40,24,47,083,45,25,73,281,44,,,,,0*4E
$GPRMC,164906.00,A,5243.3457807,N,00719.1551015,W,0.16,154.27,080122,0.0,E,R,V*48
$GPGGA,164906.00,5243.3457807,N,00719.1551015,W,5,16,1.0,55.873,M,56.132,M,0.8,0000*68
$GNGSA,A,3,02,12,25,29,31,32,,,,,,,1.4,0.7,1.3,1*3F
$GNGSA,A,3,65,66,74,83,84,85,,,,,,,1.4,0.7,1.3,2*38
$GNGSA,A,3,02,03,08,12,24,25,,,,,,,1.4,0.7,1.3,3*38
$GPGSV,3,1,10,02,29,073,43,03,06,328,00,06,13,029,00,12,40,075,46,0*68
$GPGSV,3,2,10,24,07,135,00,25,78,070,47,26,10,264,00,29,53,174,45,0*64
$GPGSV,3,3,10,31,46,297,44,32,37,232,43,,,,,,,,,0*69
$GLGSV,2,1,08,65,21,252,39,66,28,318,41,73,05,101,00,74,50,087,45,0*71
$GLGSV,2,2,08,76,11,290,00,83,16,021,31,84,52,084,35,85,25,159,43,0*77
$GAGSV,2,1,07,02,22,270,00,03,35,248,39,05,11,199,00,08,27,309,38,0*7E
$GAGSV,2,2,07,12,35,083,40,24,47,083,45,25,73,281,44,,,,,0*4E
$GPRMC,164907.00,A,5243.3457699,N,00719.1551555,W,0.16,154.27,080122,0.0,E,R,V*41
$GPGGA,164907.00,5243.3457699,N,00719.1551555,W,5,16,1.0,55.998,M,56.132,M,0.8,0000*65
$GNGSA,A,3,02,12,25,29,31,32,,,,,,,1.4,0.7,1.3,1*3F
$GNGSA,A,3,65,66,74,83,84,85,,,,,,,1.4,0.7,1.3,2*38
$GNGSA,A,3,02,03,08,12,24,25,,,,,,,1.4,0.7,1.3,3*38
$GPGSV,3,1,10,02,29,073,44,03,06,328,00,06,13,029,00,12,40,075,46,0*6F
$GPGSV,3,2,10,24,07,135,00,25,78,070,47,26,10,264,00,29,53,174,45,0*64
$GPGSV,3,3,10,31,46,297,44,32,37,232,43,,,,,,,,,0*69
$GLGSV,2,1,08,65,21,252,39,66,28,318,42,73,05,101,00,74,50,087,45,0*72
$GLGSV,2,2,08,76,11,290,00,83,16,021,30,84,52,084,35,85,25,159,43,0*76
$GAGSV,2,1,07,02,22,270,00,03,35,248,39,05,11,199,00,08,27,309,38,0*7E
$GAGSV,2,2,07,12,35,083,40,24,47,083,45,25,73,281,44,,,,,0*4E
$GPRMC,164908.00,A,5243.3457452,N,00719.1551875,W,0.16,154.27,080122,0.0,E,R,V*44
$GPGGA,164908.00,5243.3457452,N,00719.1551875,W,5,16,1.0,56.162,M,56.132,M,0.2,0000*64
$GNGSA,A,3,02,12,25,29,31,32,,,,,,,1.4,0.7,1.3,1*3F
$GNGSA,A,3,65,66,74,83,84,85,,,,,,,1.4,0.7,1.3,2*38
$GNGSA,A,3,02,03,08,12,24,25,,,,,,,1.4,0.7,1.3,3*38
$GPGSV,3,1,10,02,29,073,44,03,06,328,00,06,13,029,00,12,40,075,46,0*6F
$GPGSV,3,2,10,24,07,135,00,25,78,070,47,26,10,264,00,29,53,174,44,0*65
$GPGSV,3,3,10,31,46,297,44,32,37,232,43,,,,,,,,,0*69
$GLGSV,2,1,08,65,21,252,39,66,28,318,42,73,05,101,00,74,50,087,45,0*72
$GLGSV,2,2,08,76,11,290,00,83,16,021,30,84,52,084,35,85,25,159,43,0*76
$GAGSV,2,1,07,02,22,270,00,03,35,248,39,05,11,199,00,08,27,309,37,0*71
$GAGSV,2,2,07,12,35,083,40,24,47,083,45,25,73,281,44,,,,,0*4E
$GPRMC,164909.00,A,5243.3457415,N,00719.1552377,W,0.16,154.27,080122,0.0,E,R,V*4C
$GPGGA,164909.00,5243.3457415,N,00719.1552377,W,5,16,1.0,56.235,M,56.132,M,1.0,0000*6E
$GNGSA,A,3,02,12,25,29,31,32,,,,,,,1.4,0.7,1.3,1*3F
$GNGSA,A,3,65,66,74,83,84,85,,,,,,,1.4,0.7,1.3,2*38
$GNGSA,A,3,02,03,08,12,24,25,,,,,,,1.4,0.7,1.3,3*38
$GPGSV,3,1,10,02,29,073,44,03,06,328,00,06,13,029,00,12,40,075,46,0*6F
$GPGSV,3,2,10,24,07,135,00,25,78,070,47,26,10,264,00,29,53,174,44,0*65
$GPGSV,3,3,10,31,46,297,44,32,37,232,43,,,,,,,,,0*69
$GLGSV,2,1,08,65,21,252,39,66,28,317,42,73,05,101,00,74,50,087,45,0*7D
$GLGSV,2,2,08,76,11,290,00,83,16,021,30,84,52,084,35,85,25,159,43,0*76
$GAGSV,2,1,07,02,22,270,00,03,35,248,39,05,11,199,00,08,27,309,38,0*7E
$GAGSV,2,2,07,12,35,083,40,24,47,083,45,25,73,281,44,,,,,0*4E
$GPRMC,164910.00,A,5243.3456982,N,00719.1552707,W,0.16,154.27,080122,0.0,E,R,V*45
$GPGGA,164910.00,5243.3456982,N,00719.1552707,W,5,16,1.0,56.351,M,56.132,M,1.8,0000*6C
$GNGSA,A,3,02,12,25,29,31,32,,,,,,,1.4,0.7,1.3,1*3F
$GNGSA,A,3,65,66,74,83,84,85,,,,,,,1.4,0.7,1.3,2*38
$GNGSA,A,3,02,03,08,12,24,25,,,,,,,1.4,0.7,1.3,3*38
$GPGSV,3,1,10,02,29,073,44,03,06,328,00,06,13,029,00,12,40,075,46,0*6F
$GPGSV,3,2,10,24,07,135,00,25,78,070,47,26,10,264,00,29,54,174,44,0*62
$GPGSV,3,3,10,31,46,297,44,32,37,232,43,,,,,,,,,0*69
$GLGSV,2,1,08,65,21,252,39,66,28,317,42,73,05,101,00,74,50,087,45,0*7D
$GLGSV,2,2,08,76,11,290,00,83,16,021,30,84,52,084,35,85,25,159,43,0*76
$GAGSV,2,1,07,02,22,270,00,03,35,248,39,05,11,199,00,08,27,309,38,0*7E
$GAGSV,2,2,07,12,35,083,40,24,47,083,45,25,73,281,44,,,,,0*4E
$GPRMC,164911.00,A,5243.3456671,N,00719.1553226,W,0.16,154.27,080122,0.0,E,R,V*40
$GPGGA,164911.00,5243.3456671,N,00719.1553226,W,5,16,1.0,56.535,M,56.132,M,1.4,0000*61
$GNGSA,A,3,02,12,25,29,31,32,,,,,,,1.4,0.7,1.3,1*3F
$GNGSA,A,3,65,66,74,83,84,85,,,,,,,1.4,0.7,1.3,2*38
$GNGSA,A,3,02,03,08,12,24,25,,,,,,,1.4,0.7,1.3,3*38
$GPGSV,3,1,10,02,29,073,44,03,06,328,00,06,13,029,00,12,40,075,46,0*6F
$GPGSV,3,2,10,24,06,135,00,25,78,070,47,26,10,264,00,29,54,174,44,0*63
$GPGSV,3,3,10,31,46,297,44,32,37,232,43,,,,,,,,,0*69
$GLGSV,2,1,08,65,21,252,39,66,28,317,42,73,05,101,00,74,50,087,45,0*7D
$GLGSV,2,2,08,76,11,290,00,83,16,021,30,84,52,084,35,85,25,159,43,0*76
$GAGSV,2,1,07,02,22,270,00,03,35,248,39,05,11,199,00,08,27,309,38,0*7E
$GAGSV,2,2,07,12,35,083,40,24,47,083,45,25,73,281,44,,,,,0*4E
$GPRMC,164912.00,A,5243.3456257,N,00719.1553397,W,0.16,154.27,080122,0.0,E,R,V*48
$GPGGA,164912.00,5243.3456257,N,00719.1553397,W,5,16,1.0,56.675,M,56.132,M,0.0,0000*6B
$GNGSA,A,3,02,12,25,29,31,32,,,,,,,1.4,0.7,1.3,1*3F
$GNGSA,A,3,65,66,74,83,84,85,,,,,,,1.4,0.7,1.3,2*38
$GNGSA,A,3,02,03,08,12,24,25,,,,,,,1.4,0.7,1.3,3*38
$GPGSV,3,1,10,02,29,073,44,03,06,328,00,06,13,029,00,12,40,075,46,0*6F
$GPGSV,3,2,10,24,06,135,00,25,78,070,47,26,10,264,00,29,54,174,44,0*63
$GPGSV,3,3,10,31,46,297,45,32,37,232,43,,,,,,,,,0*68
$GLGSV,2,1,08,65,21,252,40,66,28,317,42,73,05,101,00,74,50,087,45,0*73
$GLGSV,2,2,08,76,11,290,00,83,16,021,30,84,52,084,35,85,25,159,43,0*76
$GAGSV,2,1,07,02,22,270,00,03,35,248,39,05,11,199,00,08,27,309,38,0*7E
$GAGSV,2,2,07,12,35,083,40,24,47,083,45,25,73,281,44,,,,,0*4E
$GPRMC,164913.00,A,5243.3455706,N,00719.1553288,W,0.16,154.27,080122,0.0,E,R,V*44
$GPGGA,164913.00,5243.3455706,N,00719.1553288,W,5,16,1.0,56.685,M,56.132,M,0.0,0000*68
$GNGSA,A,3,02,12,25,29,31,32,,,,,,,1.4,0.7,1.3,1*3F
$GNGSA,A,3,65,66,74,83,84,85,,,,,,,1.4,0.7,1.3,2*38
$GNGSA,A,3,02,03,08,12,24,25,,,,,,,1.4,0.7,1.3,3*38
$GPGSV,3,1,10,02,29,073,44,03,06,328,00,06,13,029,00,12,40,075,46,0*6F
$GPGSV,3,2,10,24,06,135,00,25,78,070,47,26,10,264,00,29,54,174,44,0*63
$GPGSV,3,3,10,31,46,297,45,32,37,232,43,,,,,,,,,0*68
$GLGSV,2,1,08,65,21,252,40,66,28,317,42,73,05,101,00,74,50,087,45,0*73
$GLGSV,2,2,08,76,11,290,00,83,16,021,30,84,52,084,35,85,25,159,43,0*76
$GAGSV,2,1,07,02,22,270,00,03,35,248,39,05,11,199,00,08,27,309,38,0*7E
$GAGSV,2,2,07,12,35,083,40,24,47,083,45,25,73,281,44,,,,,0*4E
$GPRMC,164914.00,A,5243.3454832,N,00719.1553056,W,0.16,154.27,080122,0.0,E,R,V*4B
$GPGGA,164914.00,5243.3454832,N,00719.1553056,W,5,16,1.0,56.727,M,56.132,M,0.0,0000*6E
$GNGSA,A,3,02,12,25,29,31,32,,,,,,,1.4,0.7,1.3,1*3F
$GNGSA,A,3,65,66,74,83,84,85,,,,,,,1.4,0.7,1.3,2*38
$GNGSA,A,3,02,03,08,12,24,25,,,,,,,1.4,0.7,1.3,3*38
$GPGSV,3,1,10,02,29,073,44,03,06,328,00,06,13,029,00,12,40,075,46,0*6F
$GPGSV,3,2,10,24,06,135,00,25,78,070,47,26,10,264,00,29,54,174,44,0*63
$GPGSV,3,3,10,31,46,297,45,32,37,232,43,,,,,,,,,0*68
$GLGSV,2,1,08,65,21,252,40,66,28,317,42,73,05,101,00,74,50,087,45,0*73
$GLGSV,2,2,08,76,11,290,00,83,16,021,30,84,52,084,35,85,25,159,43,0*76
$GAGSV,2,1,07,02,22,270,00,03,35,248,39,05,11,199,00,08,27,309,38,0*7E
$GAGSV,2,2,07,12,35,083,40,24,47,083,45,25,73,281,44,,,,,0*4E
$GPRMC,164915.00,A,5243.3454257,N,00719.1552740,W,0.16,154.27,080122,0.0,E,R,V*42
$GPGGA,164915.00,5243.3454257,N,00719.1552740,W,5,16,1.0,56.755,M,56.132,M,0.0,0000*62
$GNGSA,A,3,02,12,25,29,31,32,,,,,,,1.4,0.7,1.3,1*3F
$GNGSA,A,3,65,66,74,83,84,85,,,,,,,1.4,0.7,1.3,2*38
$GNGSA,A,3,02,03,08,12,24,25,,,,,,,1.4,0.7,1.3,3*38
$GPGSV,3,1,10,02,29,073,44,03,06,328,00,06,13,029,00,12,40,075,46,0*6F
$GPGSV,3,2,10,24,06,135,00,25,78,070,47,26,10,264,00,29,54,174,44,0*63
$GPGSV,3,3,10,31,46,297,45,32,37,232,43,,,,,,,,,0*68
$GLGSV,2,1,08,65,21,252,40,66,28,317,42,73,05,101,00,74,50,087,45,0*73
$GLGSV,2,2,08,76,11,290,00,83,16,021,30,84,52,084,35,85,25,159,43,0*76
$GAGSV,2,1,07,02,22,270,00,03,35,248,39,05,11,199,00,08,27,309,38,0*7E
$GAGSV,2,2,07,12,35,083,40,24,47,083,45,25,73,281,44,,,,,0*4E
$GPRMC,164916.00,A,5243.3453836,N,00719.1552298,W,0.16,154.27,080122,0.0,E,R,V*4B
$GPGGA,164916.00,5243.3453836,N,00719.1552298,W,5,16,1.0,56.840,M,56.132,M,0.0,0000*60
$GNGSA,A,3,02,12,25,29,31,32,,,,,,,1.4,0.7,1.3,1*3F
$GNGSA,A,3,65,66,74,83,84,85,,,,,,,1.4,0.7,1.3,2*38
$GNGSA,A,3,02,03,08,12,24,25,,,,,,,1.4,0.7,1.3,3*38
$GPGSV,3,1,10,02,29,073,44,03,06,328,00,06,13,029,00,12,40,075,46,0*6F
$GPGSV,3,2,10,24,06,135,00,25,78,070,47,26,10,264,00,29,54,174,44,0*63
$GPGSV,3,3,10,31,46,297,45,32,37,232,43,,,,,,,,,0*68
$GLGSV,2,1,08,65,21,252,40,66,28,317,42,73,05,101,00,74,50,087,45,0*73
$GLGSV,2,2,08,76,11,290,00,83,16,021,30,84,52,084,35,85,25,159,43,0*76
$GAGSV,2,1,07,02,22,270,00,03,35,248,39,05,11,199,00,08,27,309,38,0*7E
$GAGSV,2,2,07,12,35,083,40,24,47,083,45,25,73,281,44,,,,,0*4E
$GPRMC,164917.00,A,5243.3453457,N,00719.1551900,W,0.16,154.27,080122,0.0,E,R,V*48
$GPGGA,164917.00,5243.3453457,N,00719.1551900,W,5,16,1.0,56.942,M,56.132,M,0.0,0000*60
$GNGSA,A,3,02,12,25,29,31,32,,,,,,,1.4,0.7,1.3,1*3F
$GNGSA,A,3,65,66,74,83,84,85,,,,,,,1.4,0.7,1.3,2*38
$GNGSA,A,3,02,03,08,12,24,25,,,,,,,1.4,0.7,1.3,3*38
$GPGSV,3,1,10,02,29,073,44,03,06,328,00,06,13,029,00,12,40,075,46,0*6F
$GPGSV,3,2,10,24,06,135,00,25,78,070,47,26,10,264,00,29,54,174,44,0*63
$GPGSV,3,3,10,31,46,297,45,32,37,232,43,,,,,,,,,0*68
$GLGSV,2,1,08,65,21,252,40,66,28,317,42,73,05,101,00,74,50,087,45,0*73
$GLGSV,2,2,08,76,11,290,00,83,16,021,31,84,52,084,35,85,25,159,43,0*77
$GAGSV,2,1,07,02,22,270,00,03,35,248,39,05,11,199,00,08,27,309,38,0*7E
$GAGSV,2,2,07,12,35,083,40,24,47,083,45,25,73,281,44,,,,,0*4E
$GPRMC,164918.00,A,5243.3453221,N,00719.1551538,W,0.16,154.27,080122,0.0,E,R,V*47
$GPGGA,164918.00,5243.3453221,N,00719.1551538,W,5,16,1.0,57.022,M,56.132,M,0.0,0000*61
$GNGSA,A,3,02,12,25,29,31,32,,,,,,,1.4,0.7,1.3,1*3F
$GNGSA,A,3,65,66,74,83,84,85,,,,,,,1.4,0.7,1.3,2*38
$GNGSA,A,3,02,03,08,12,24,25,,,,,,,1.4,0.7,1.3,3*38
$GPGSV,3,1,10,02,29,073,44,03,06,328,00,06,13,029,00,12,40,075,46,0*6F
$GPGSV,3,2,10,24,06,135,00,25,78,070,47,26,10,264,00,29,54,174,44,0*63
$GPGSV,3,3,10,31,46,297,44,32,37,232,43,,,,,,,,,0*69
$GLGSV,2,1,08,65,21,252,40,66,28,317,42,73,05,101,00,74,50,087,45,0*73
$GLGSV,2,2,08,76,11,290,00,83,16,021,30,84,52,084,35,85,25,159,43,0*76
$GAGSV,2,1,07,02,22,270,00,03,35,248,39,05,11,199,00,08,27,309,38,0*7E
$GAGSV,2,2,07,12,35,083,40,24,47,083,45,25,73,281,44,,,,,0*4E
$GPRMC,164919.00,A,5243.3452803,N,00719.1551381,W,0.16,154.27,080122,0.0,E,R,V*49
$GPGGA,164919.00,5243.3452803,N,00719.1551381,W,5,16,1.0,57.111,M,56.132,M,0.0,0000*6E
$GNGSA,A,3,02,12,25,29,31,32,,,,,,,1.4,0.7,1.3,1*3F
$GNGSA,A,3,65,66,74,83,84,85,,,,,,,1.4,0.7,1.3,2*38
$GNGSA,A,3,02,03,08,12,24,25,,,,,,,1.4,0.7,1.3,3*38
$GPGSV,3,1,10,02,29,073,44,03,06,328,00,06,13,029,00,12,40,075,46,0*6F
$GPGSV,3,2,10,24,06,135,00,25,78,070,47,26,10,264,00,29,54,174,44,0*63
$GPGSV,3,3,10,31,46,297,44,32,37,232,43,,,,,,,,,0*69
$GLGSV,2,1,08,65,21,252,39,66,28,317,42,73,05,101,00,74,50,087,45,0*7D
$GLGSV,2,2,08,76,11,290,00,83,16,021,30,84,52,084,35,85,25,159,43,0*76
$GAGSV,2,1,07,02,22,270,00,03,35,248,39,05,11,199,00,08,27,309,38,0*7E
$GAGSV,2,2,07,12,35,083,40,24,47,083,45,25,73,281,44,,,,,0*4E
$GPRMC,164920.00,A,5243.3452613,N,00719.1551333,W,0.16,154.27,080122,0.0,E,R,V*45
$GPGGA,164920.00,5243.3452613,N,00719.1551333,W,5,16,1.0,57.225,M,56.132,M,0.0,0000*66
$GNGSA,A,3,02,12,25,29,31,32,,,,,,,1.4,0.7,1.3,1*3F
$GNGSA,A,3,65,66,74,83,84,85,,,,,,,1.4,0.7,1.3,2*38
$GNGSA,A,3,02,03,08,12,24,25,,,,,,,1.4,0.7,1.3,3*38
$GPGSV,3,1,10,02,29,073,44,03,06,328,00,06,13,029,00,12,40,075,46,0*6F
$GPGSV,3,2,10,24,06,135,00,25,78,070,47,26,10,264,00,29,54,174,44,0*63
$GPGSV,3,3,10,31,46,297,44,32,37,232,43,,,,,,,,,0*69
$GLGSV,2,1,08,65,21,252,39,66,28,317,41,73,05,101,00,74,50,087,45,0*7E
$GLGSV,2,2,08,76,11,290,00,83,16,021,30,84,52,084,35,85,25,159,43,0*76
$GAGSV,2,1,07,02,22,270,00,03,35,248,39,05,11,199,00,08,27,309,38,0*7E
$GAGSV,2,2,07,12,35,083,40,24,47,083,45,25,73,281,44,,,,,0*4E
$GPRMC,164921.00,A,5243.3452521,N,00719.1551269,W,0.16,154.27,080122,0.0,E,R,V*48
$GPGGA,164921.00,5243.3452521,N,00719.1551269,W,5,16,1.0,57.288,M,56.132,M,0.0,0000*6C
$GNGSA,A,3,02,12,25,29,31,32,,,,,,,1.4,0.7,1.3,1*3F
$GNGSA,A,3,65,66,74,83,84,85,,,,,,,1.4,0.7,1.3,2*38
$GNGSA,A,3,02,03,08,12,24,25,,,,,,,1.4,0.7,1.3,3*38
$GPGSV,3,1,10,02,29,073,44,03,06,328,00,06,13,029,00,12,40,075,46,0*6F
$GPGSV,3,2,10,24,06,135,00,25,78,070,47,26,10,264,00,29,54,174,44,0*63
$GPGSV,3,3,10,31,46,297,44,32,37,232,43,,,,,,,,,0*69
$GLGSV,2,1,08,65,21,252,40,66,28,317,42,73,05,101,00,74,50,087,45,0*73
$GLGSV,2,2,08,76,11,290,00,83,16,021,30,84,52,084,35,85,25,159,43,0*76
$GAGSV,2,1,07,02,22,270,00,03,35,248,39,05,11,199,00,08,27,309,38,0*7E
$GAGSV,2,2,07,12,35,083,40,24,47,083,45,25,73,281,44,,,,,0*4E
$GPRMC,164922.00,A,5243.3452484,N,00719.1551325,W,0.16,154.27,080122,0.0,E,R,V*4C
$GPGGA,164922.00,5243.3452484,N,00719.1551325,W,5,16,1.0,57.421,M,56.132,M,0.0,0000*6D
$GNGSA,A,3,02,12,25,29,31,32,,,,,,,1.4,0.7,1.3,1*3F
$GNGSA,A,3,65,66,74,83,84,85,,,,,,,1.4,0.7,1.3,2*38
$GNGSA,A,3,02,03,08,12,24,25,,,,,,,1.4,0.7,1.3,3*38
$GPGSV,3,1,10,02,29,073,44,03,06,328,00,06,13,029,00,12,40,075,46,0*6F
$GPGSV,3,2,10,24,06,135,00,25,78,070,47,26,10,264,00,29,54,174,44,0*63
$GPGSV,3,3,10,31,46,297,44,32,37,232,43,,,,,,,,,0*69
$GLGSV,2,1,08,65,21,252,39,66,28,317,42,73,05,101,00,74,50,087,45,0*7D
$GLGSV,2,2,08,76,11,290,00,83,16,021,30,84,52,083,35,85,25,159,43,0*71
$GAGSV,2,1,07,02,22,270,00,03,35,248,39,05,11,199,00,08,27,309,38,0*7E
$GAGSV,2,2,07,12,35,083,40,24,47,083,45,25,73,281,44,,,,,0*4E
$GPRMC,164923.00,A,5243.3452446,N,00719.1551457,W,0.16,154.27,080122,0.0,E,R,V*41
$GPGGA,164923.00,5243.3452446,N,00719.1551457,W,5,16,1.0,57.524,M,56.132,M,0.0,0000*64
$GNGSA,A,3,02,12,25,29,31,32,,,,,,,1.4,0.7,1.3,1*3F
$GNGSA,A,3,65,66,74,83,84,85,,,,,,,1.4,0.7,1.3,2*38
$GNGSA,A,3,02,03,08,12,24,25,,,,,,,1.4,0.7,1.3,3*38
$GPGSV,3,1,10,02,29,073,44,03,06,328,00,06,13,029,00,12,40,075,46,0*6F
$GPGSV,3,2,10,24,06,135,00,25,78,070,47,26,10,264,00,29,54,174,44,0*63
$GPGSV,3,3,10,31,46,297,44,32,37,232,43,,,,,,,,,0*69
$GLGSV,2,1,08,65,21,252,39,66,28,317,42,73,05,101,00,74,50,087,45,0*7D
$GLGSV,2,2,08,76,11,290,00,83,16,021,30,84,52,083,35,85,25,159,43,0*71
$GAGSV,2,1,07,02,22,270,00,03,35,248,39,05,11,199,00,08,27,309,37,0*71
$GAGSV,2,2,07,12,35,083,40,24,47,083,45,25,73,281,44,,,,,0*4E
$GPRMC,164924.00,A,5243.3452429,N,00719.1551490,W,0.16,154.27,080122,0.0,E,R,V*44
$GPGGA,164924.00,5243.3452429,N,00719.1551490,W,5,16,1.0,57.598,M,56.132,M,0.0,0000*66
$GNGSA,A,3,02,12,25,29,31,32,,,,,,,1.4,0.7,1.3,1*3F
$GNGSA,A,3,65,66,74,83,84,85,,,,,,,1.4,0.7,1.3,2*38
$GNGSA,A,3,02,03,08,12,24,25,,,,,,,1.4,0.7,1.3,3*38
$GPGSV,3,1,10,02,29,073,44,03,06,328,00,06,13,029,00,12,40,075,46,0*6F
$GPGSV,3,2,10,24,06,135,00,25,78,070,47,26,10,264,00,29,54,174,44,0*63
$GPGSV,3,3,10,31,46,297,44,32,37,232,43,,,,,,,,,0*69
$GLGSV,2,1,08,65,21,252,39,66,28,317,42,73,05,101,00,74,50,087,45,0*7D
$GLGSV,2,2,08,76,11,290,00,83,16,021,31,84,52,083,35,85,25,159,43,0*70
$GAGSV,2,1,07,02,22,270,00,03,35,248,39,05,11,199,00,08,27,309,37,0*71
$GAGSV,2,2,07,12,35,083,40,24,47,083,45,25,73,281,44,,,,,0*4E
$GPRMC,164925.00,A,5243.3452471,N,00719.1551460,W,0.16,154.27,080122,0.0,E,R,V*47
$GPGGA,164925.00,5243.3452471,N,00719.1551460,W,5,16,1.0,57.658,M,56.132,M,0.0,0000*6A
$GNGSA,A,3,02,12,25,29,31,32,,,,,,,1.4,0.7,1.3,1*3F
$GNGSA,A,3,65,66,74,83,84,85,,,,,,,1.4,0.7,1.3,2*38
$GNGSA,A,3,02,03,08,12,24,25,,,,,,,1.4,0.7,1.3,3*38
$GPGSV,3,1,10,02,29,073,44,03,06,328,00,06,13,029,00,12,40,075,46,0*6F
$GPGSV,3,2,10,24,06,135,00,25,78,070,47,26,10,264,00,29,54,174,44,0*63
$GPGSV,3,3,10,31,46,297,44,32,37,232,43,,,,,,,,,0*69
$GLGSV,2,1,08,65,21,252,39,66,28,317,41,73,05,101,00,74,50,087,45,0*7E
$GLGSV,2,2,08,76,11,290,00,83,16,021,30,84,52,083,34,85,25,159,43,0*70
$GAGSV,2,1,07,02,22,270,00,03,35,248,39,05,11,199,00,08,27,309,37,0*71
$GAGSV,2,2,07,12,35,083,40,24,47,083,45,25,73,281,44,,,,,0*4E
$GPRMC,164926.00,A,5243.3452308,N,00719.1551405,W,0.16,154.27,080122,0.0,E,R,V*4E
$GPGGA,164926.00,5243.3452308,N,00719.1551405,W,5,16,1.0,57.641,M,56.132,M,0.0,0000*6B
$GNGSA,A,3,02,12,25,29,31,32,,,,,,,1.4,0.7,1.3,1*3F
$GNGSA,A,3,65,66,74,83,84,85,,,,,,,1.4,0.7,1.3,2*38
$GNGSA,A,3,02,03,08,12,24,25,,,,,,,1.4,0.7,1.3,3*38
$GPGSV,3,1,10,02,29,073,44,03,06,328,00,06,13,029,00,12,40,075,46,0*6F
$GPGSV,3,2,10,24,06,135,00,25,78,070,47,26,10,264,00,29,54,174,44,0*63
$GPGSV,3,3,10,31,46,297,45,32,37,232,43,,,,,,,,,0*68
$GLGSV,2,1,08,65,21,252,40,66,28,317,41,73,05,101,00,74,50,087,46,0*73
$GLGSV,2,2,08,76,12,290,00,83,16,021,30,84,52,083,35,85,25,159,43,0*72
$GAGSV,2,1,07,02,22,270,00,03,35,248,39,05,11,199,00,08,27,309,37,0*71
$GAGSV,2,2,07,12,35,083,40,24,47,083,45,25,73,281,44,,,,,0*4E
$GPRMC,164927.00,A,5243.3452397,N,00719.1551412,W,0.16,154.27,080122,0.0,E,R,V*4F
$GPGGA,164927.00,5243.3452397,N,00719.1551412,W,5,16,1.0,57.707,M,56.132,M,0.0,0000*69
$GNGSA,A,3,02,12,25,29,31,32,,,,,,,1.4,0.7,1.3,1*3F
$GNGSA,A,3,65,66,74,83,84,85,,,,,,,1.4,0.7,1.3,2*38
$GNGSA,A,3,02,03,08,12,24,25,,,,,,,1.4,0.7,1.3,3*38
$GPGSV,3,1,10,02,29,073,44,03,06,328,00,06,13,029,00,12,40,075,46,0*6F
$GPGSV,3,2,10,24,06,135,00,25,78,070,47,26,10,264,00,29,54,174,44,0*63
$GPGSV,3,3,10,31,46,297,45,32,37,232,42,,,,,,,,,0*69
$GLGSV,2,1,08,65,21,252,40,66,28,317,41,73,05,101,00,74,50,087,45,0*70
$GLGSV,2,2,08,76,12,290,00,83,16,021,30,84,52,083,35,85,25,159,43,0*72
$GAGSV,2,1,07,02,22,270,00,03,35,248,39,05,10,199,00,08,27,309,37,0*70
$GAGSV,2,2,07,12,35,083,40,24,47,083,45,25,73,281,44,,,,,0*4E
$GPRMC,164928.00,A,5243.3452311,N,00719.1551373,W,0.16,154.27,080122,0.0,E,R,V*4E
$GPGGA,164928.00,5243.3452311,N,00719.1551373,W,5,16,1.0,57.757,M,56.132,M,0.0,0000*6D
$GNGSA,A,3,02,12,25,29,31,32,,,,,,,1.4,0.7,1.3,1*3F
$GNGSA,A,3,65,66,74,83,84,85,,,,,,,1.4,0.7,1.3,2*38
$GNGSA,A,3,02,03,08,12,24,25,,,,,,,1.4,0.7,1.3,3*38
$GPGSV,3,1,10,02,29,073,44,03,06,328,00,06,13,029,00,12,40,075,46,0*6F
$GPGSV,3,2,10,24,06,135,00,25,78,070,47,26,10,264,00,29,54,174,44,0*63
$GPGSV,3,3,10,31,46,297,45,32,37,232,42,,,,,,,,,0*69
$GLGSV,2,1,08,65,21,252,39,66,28,317,41,73,05,101,00,74,50,087,45,0*7E
$GLGSV,2,2,08,76,12,290,00,83,16,021,30,84,52,083,35,85,25,159,43,0*72
$GAGSV,2,1,07,02,22,270,00,03,35,248,39,05,10,199,00,08,27,309,37,0*70
$GAGSV,2,2,07,12,35,083,40,24,47,083,45,25,73,281,44,,,,,0*4E
$GPRMC,164929.00,A,5243.3452339,N,00719.1551390,W,0.16,154.27,080122,0.0,E,R,V*48
$GPGGA,164929.00,5243.3452339,N,00719.1551390,W,5,16,1.0,57.825,M,56.132,M,0.0,0000*61
$GNGSA,A,3,02,12,25,29,31,32,,,,,,,1.4,0.7,1.3,1*3F
$GNGSA,A,3,65,66,74,83,84,85,,,,,,,1.4,0.7,1.3,2*38
$GNGSA,A,3,02,03,08,12,24,25,,,,,,,1.4,0.7,1.3,3*38
$GPGSV,3,1,10,02,29,073,44,03,06,328,00,06,13,029,00,12,40,075,46,0*6F
$GPGSV,3,2,10,24,06,135,00,25,78,070,47,26,10,264,00,29,54,174,44,0*63
$GPGSV,3,3,10,31,46,297,45,32,37,232,43,,,,,,,,,0*68
$GLGSV,2,1,08,65,21,252,39,66,28,317,42,73,05,101,00,74,50,087,45,0*7D
$GLGSV,2,2,08,76,12,290,00,83,16,021,30,84,52,083,35,85,25,159,43,0*72
$GAGSV,2,1,07,02,22,270,00,03,35,248,39,05,10,199,00,08,27,309,37,0*70
$GAGSV,2,2,07,12,35,083,40,24,47,083,45,25,73,281,44,,,,,0*4E
$GPRMC,164930.00,A,5243.3452249,N,00719.1551291,W,0.16,154.27,080122,0.0,E,R,V*46
$GPGGA,164930.00,5243.3452249,N,00719.1551291,W,5,16,1.0,57.873,M,56.132,M,0.0,0000*6C
$GNGSA,A,3,02,12,25,29,31,32,,,,,,,1.4,0.7,1.3,1*3F
$GNGSA,A,3,65,66,74,83,84,85,,,,,,,1.4,0.7,1.3,2*38
$GNGSA,A,3,02,03,08,12,24,25,,,,,,,1.4,0.7,1.3,3*38
$GPGSV,3,1,10,02,29,073,43,03,06,328,00,06,13,029,00,12,40,075,46,0*68
$GPGSV,3,2,10,24,06,135,00,25,78,070,47,26,10,264,00,29,54,174,44,0*63
$GPGSV,3,3,10,31,46,297,45,32,37,232,43,,,,,,,,,0*68
$GLGSV,2,1,08,65,21,252,39,66,28,317,41,73,05,101,00,74,50,087,45,0*7E
$GLGSV,2,2,08,76,12,290,00,83,16,021,30,84,52,083,35,85,25,159,43,0*72
$GAGSV,2,1,07,02,22,270,00,03,35,248,39,05,10,199,00,08,27,309,37,0*70
$GAGSV,2,2,07,12,35,083,40,24,47,083,45,25,73,281,44,,,,,0*4E
$GPRMC,164931.00,A,5243.3452178,N,00719.1551193,W,0.16,154.27,080122,0.0,E,R,V*47
$GPGGA,164931.00,5243.3452178,N,00719.1551193,W,5,16,1.0,57.898,M,56.132,M,0.0,0000*68
$GNGSA,A,3,02,12,25,29,31,32,,,,,,,1.4,0.7,1.3,1*3F
$GNGSA,A,3,65,66,74,83,84,85,,,,,,,1.4,0.7,1.3,2*38
$GNGSA,A,3,02,03,08,12,24,25,,,,,,,1.4,0.7,1.3,3*38
$GPGSV,3,1,10,02,29,073,43,03,06,328,00,06,13,029,00,12,40,075,46,0*68
$GPGSV,3,2,10,24,06,135,00,25,78,070,47,26,10,264,00,29,54,174,44,0*63
$GPGSV,3,3,10,31,46,297,45,32,37,232,42,,,,,,,,,0*69
$GLGSV,2,1,08,65,21,252,39,66,28,317,42,73,05,101,00,74,50,087,45,0*7D
$GLGSV,2,2,08,76,12,290,00,83,16,021,30,84,52,083,35,85,25,159,43,0*72
$GAGSV,2,1,07,02,22,270,00,03,35,248,39,05,10,199,00,08,27,309,37,0*70
$GAGSV,2,2,07,12,35,083,40,24,47,083,45,25,73,281,44,,,,,0*4E
$GPRMC,164932.00,A,5243.3452123,N,00719.1551074,W,0.16,154.27,080122,0.0,E,R,V*42
$GPGGA,164932.00,5243.3452123,N,00719.1551074,W,5,16,1.0,57.963,M,56.132,M,0.0,0000*68
$GNGSA,A,3,02,12,25,29,31,32,,,,,,,1.4,0.7,1.3,1*3F
$GNGSA,A,3,65,66,74,83,84,85,,,,,,,1.4,0.7,1.3,2*38
$GNGSA,A,3,02,03,08,12,24,25,,,,,,,1.4,0.7,1.3,3*38
$GPGSV,3,1,10,02,29,073,44,03,06,328,00,06,13,029,00,12,40,075,46,0*6F
$GPGSV,3,2,10,24,06,135,00,25,78,070,47,26,10,264,00,29,54,174,44,0*63
$GPGSV,3,3,10,31,46,297,45,32,37,232,42,,,,,,,,,0*69
$GLGSV,2,1,08,65,21,252,39,66,28,317,42,73,05,101,00,74,50,087,45,0*7D
$GLGSV,2,2,08,76,12,290,00,83,16,021,30,84,52,083,35,85,25,159,43,0*72
$GAGSV,2,1,07,02,22,270,00,03,35,248,39,05,10,199,00,08,27,309,37,0*70
$GAGSV,2,2,07,12,35,083,40,24,47,083,45,25,73,281,44,,,,,0*4E
$GPRMC,164933.00,A,5243.3452051,N,00719.1550963,W,0.16,154.27,080122,0.0,E,R,V*49
$GPGGA,164933.00,5243.3452051,N,00719.1550963,W,5,16,1.0,57.943,M,56.132,M,0.0,0000*61
$GNGSA,A,3,02,12,25,29,31,32,,,,,,,1.4,0.7,1.3,1*3F
$GNGSA,A,3,65,66,74,83,84,85,,,,,,,1.4,0.7,1.3,2*38
$GNGSA,A,3,02,03,08,12,24,25,,,,,,,1.4,0.7,1.3,3*38
$GPGSV,3,1,10,02,29,073,43,03,06,328,00,06,13,029,00,12,40,075,46,0*68
$GPGSV,3,2,10,24,06,135,00,25,78,070,47,26,10,264,00,29,54,174,44,0*63
$GPGSV,3,3,10,31,46,297,45,32,37,232,42,,,,,,,,,0*69
$GLGSV,2,1,08,65,21,252,39,66,28,317,42,73,05,101,00,74,50,087,45,0*7D
$GLGSV,2,2,08,76,12,290,00,83,16,021,30,84,52,083,34,85,25,159,43,0*73
$GAGSV,2,1,07,02,22,270,00,03,35,248,39,05,10,199,00,08,27,309,38,0*7F
$GAGSV,2,2,07,12,35,083,40,24,47,083,45,25,73,281,44,,,,,0*4E
$GPRMC,164934.00,A,5243.3452039,N,00719.1550937,W,0.16,154.27,080122,0.0,E,R,V*41
$GPGGA,164934.00,5243.3452039,N,00719.1550937,W,5,16,1.0,57.981,M,56.132,M,0.0,0000*67
$GNGSA,A,3,02,12,25,29,31,32,,,,,,,1.4,0.7,1.3,1*3F
$GNGSA,A,3,65,66,74,83,84,85,,,,,,,1.4,0.7,1.3,2*38
$GNGSA,A,3,02,03,08,12,24,25,,,,,,,1.4,0.7,1.3,3*38
$GPGSV,3,1,10,02,29,073,44,03,06,328,00,06,13,029,00,12,40,075,46,0*6F
$GPGSV,3,2,10,24,06,135,00,25,78,070,47,26,10,264,00,29,54,174,44,0*63
$GPGSV,3,3,10,31,46,297,45,32,37,232,42,,,,,,,,,0*69
$GLGSV,2,1,08,65,21,252,39,66,28,317,42,73,05,101,00,74,50,087,45,0*7D
$GLGSV,2,2,08,76,12,290,00,83,16,021,31,84,52,083,34,85,25,159,43,0*72
$GAGSV,2,1,07,02,22,270,00,03,35,248,39,05,10,199,00,08,27,309,37,0*70
$GAGSV,2,2,07,12,35,083,40,24,47,083,45,25,73,281,44,,,,,0*4E
$GPRMC,164935.00,A,5243.3452059,N,00719.1550947,W,0.16,154.27,080122,0.0,E,R,V*41
$GPGGA,164935.00,5243.3452059,N,00719.1550947,W,5,16,1.0,58.020,M,56.132,M,0.0,0000*6A
$GNGSA,A,3,02,12,25,29,31,32,,,,,,,1.4,0.7,1.3,1*3F
$GNGSA,A,3,65,66,74,83,84,85,,,,,,,1.4,0.7,1.3,2*38
$GNGSA,A,3,02,03,08,12,24,25,,,,,,,1.4,0.7,1.3,3*38
$GPGSV,3,1,10,02,29,073,44,03,06,328,00,06,13,029,00,12,40,075,46,0*6F
$GPGSV,3,2,10,24,06,135,00,25,78,070,47,26,10,264,00,29,54,174,44,0*63
$GPGSV,3,3,10,31,46,297,45,32,37,232,42,,,,,,,,,0*69
$GLGSV,2,1,08,65,21,252,38,66,28,317,42,73,05,101,00,74,50,087,45,0*7C
$GLGSV,2,2,08,76,12,290,00,83,16,021,31,84,52,083,34,85,25,159,43,0*72
$GAGSV,2,1,07,02,22,270,00,03,35,248,39,05,10,199,00,08,27,309,38,0*7F
$GAGSV,2,2,07,12,35,083,40,24,47,083,44,25,73,281,44,,,,,0*4F
$GPRMC,164936.00,A,5243.3452246,N,00719.1550992,W,0.16,154.27,080122,0.0,E,R,V*46
$GPGGA,164936.00,5243.3452246,N,00719.1550992,W,5,16,1.0,58.053,M,56.132,M,0.0,0000*69
$GNGSA,A,3,02,12,25,29,31,32,,,,,,,1.4,0.7,1.3,1*3F
$GNGSA,A,3,65,66,74,83,84,85,,,,,,,1.4,0.7,1.3,2*38
$GNGSA,A,3,02,03,08,12,24,25,,,,,,,1.4,0.7,1.3,3*38
$GPGSV,3,1,10,02,29,073,44,03,06,328,00,06,13,029,00,12,40,075,46,0*6F
$GPGSV,3,2,10,24,06,135,00,25,78,070,47,26,10,264,00,29,54,174,44,0*63
$GPGSV,3,3,10,31,46,297,45,32,37,232,42,,,,,,,,,0*69
$GLGSV,2,1,08,65,21,252,39,66,28,317,42,73,05,101,00,74,50,087,45,0*7D
$GLGSV,2,2,08,76,12,290,00,83,16,021,30,84,52,083,34,85,25,159,43,0*73
$GAGSV,2,1,07,02,22,270,00,03,35,248,39,05,10,199,00,08,27,309,37,0*70
$GAGSV,2,2,07,12,35,083,40,24,47,083,44,25,73,281,44,,,,,0*4F
$GPRMC,164937.00,A,5243.3452359,N,00719.1551048,W,0.16,154.27,080122,0.0,E,R,V*47
$GPGGA,164937.00,5243.3452359,N,00719.1551048,W,5,16,1.0,58.070,M,56.132,M,0.0,0000*69
$GNGSA,A,3,02,12,25,29,31,32,,,,,,,1.4,0.7,1.3,1*3F
$GNGSA,A,3,65,66,74,83,84,85,,,,,,,1.4,0.7,1.3,2*38
$GNGSA,A,3,02,03,08,12,24,25,,,,,,,1.4,0.7,1.3,3*38
$GPGSV,3,1,10,02,29,073,44,03,06,327,00,06,13,029,00,12,40,075,46,0*60
$GPGSV,3,2,10,24,06,135,00,25,78,070,47,26,10,264,00,29,54,174,44,0*63
$GPGSV,3,3,10,31,46,297,45,32,37,232,42,,,,,,,,,0*69
$GLGSV,2,1,08,65,21,252,39,66,28,317,42,73,05,101,00,74,50,087,45,0*7D
$GLGSV,2,2,08,76,12,290,00,83,16,021,31,84,52,083,34,85,25,159,43,0*72
$GAGSV,2,1,07,02,22,270,00,03,35,248,39,05,10,199,00,08,27,309,38,0*7F
$GAGSV,2,2,07,12,35,083,40,24,47,083,44,25,73,281,44,,,,,0*4F
$GPRMC,164938.00,A,5243.3452467,N,00719.1551067,W,0.16,154.27,080122,0.0,E,R,V*4F
$GPGGA,164938.00,5243.3452467,N,00719.1551067,W,5,16,1.0,58.099,M,56.132,M,0.0,0000*66
$GNGSA,A,3,02,12,25,29,31,32,,,,,,,1.4,0.7,1.3,1*3F
$GNGSA,A,3,65,66,74,83,84,85,,,,,,,1.4,0.7,1.3,2*38
$GNGSA,A,3,02,03,08,12,24,25,,,,,,,1.4,0.7,1.3,3*38
$GPGSV,3,1,10,02,29,073,44,03,06,327,00,06,13,029,00,12,40,075,46,0*60
$GPGSV,3,2,10,24,06,135,00,25,78,070,47,26,10,264,00,29,54,174,45,0*62
$GPGSV,3,3,10,31,46,297,45,32,37,232,42,,,,,,,,,0*69
$GLGSV,2,1,08,65,21,252,39,66,28,317,42,73,05,101,00,74,50,087,45,0*7D
$GLGSV,2,2,08,76,12,290,00,83,16,021,31,84,52,083,34,85,25,159,43,0*72
$GAGSV,2,1,07,02,22,270,00,03,35,248,39,05,10,199,00,08,27,309,38,0*7F
$GAGSV,2,2,07,12,35,083,40,24,47,083,44,25,73,281,44,,,,,0*4F
$GPRMC,164939.00,A,5243.3452480,N,00719.1551035,W,0.16,154.27,080122,0.0,E,R,V*40
$GPGGA,164939.00,5243.3452480,N,00719.1551035,W,5,16,1.0,58.109,M,56.132,M,0.2,0000*63
$GNGSA,A,3,02,12,25,29,31,32,,,,,,,1.4,0.7,1.3,1*3F
$GNGSA,A,3,65,66,74,83,84,85,,,,,,,1.4,0.7,1.3,2*38
$GNGSA,A,3,02,03,08,12,24,25,,,,,,,1.4,0.7,1.3,3*38
$GPGSV,3,1,10,02,29,073,43,03,06,327,00,06,13,029,00,12,40,075,46,0*67
$GPGSV,3,2,10,24,06,135,00,25,78,070,47,26,10,264,00,29,54,174,45,0*62
$GPGSV,3,3,10,31,46,297,45,32,37,232,43,,,,,,,,,0*68
$GLGSV,2,1,08,65,21,252,39,66,28,317,41,73,05,101,00,74,50,087,45,0*7E
$GLGSV,2,2,08,76,12,290,00,83,16,021,31,84,52,083,34,85,25,159,43,0*72
$GAGSV,2,1,07,02,22,270,00,03,35,248,39,05,10,199,00,08,27,309,38,0*7F
$GAGSV,2,2,07,12,35,083,40,24,47,083,44,25,73,281,44,,,,,0*4F
$GPRMC,164940.00,A,5243.3452567,N,00719.1550975,W,0.16,154.27,080122,0.0,E,R,V*4A
$GPGGA,164940.00,5243.3452567,N,00719.1550975,W,5,16,1.0,58.109,M,56.132,M,0.0,0000*6B
$GNGSA,A,3,02,12,25,29,31,32,,,,,,,1.4,0.7,1.3,1*3F
$GNGSA,A,3,65,66,74,83,84,85,,,,,,,1.4,0.7,1.3,2*38
$GNGSA,A,3,02,03,08,12,24,25,,,,,,,1.4,0.7,1.3,3*38
$GPGSV,3,1,10,02,29,073,44,03,06,327,00,06,13,029,00,12,40,075,46,0*60
$GPGSV,3,2,10,24,06,135,00,25,78,070,47,26,10,264,00,29,54,174,45,0*62
$GPGSV,3,3,10,31,46,297,45,32,37,232,42,,,,,,,,,0*69
$GLGSV,2,1,08,65,21,252,39,66,28,317,41,73,05,101,00,74,50,087,45,0*7E
$GLGSV,2,2,08,76,12,290,00,83,16,021,31,84,52,083,34,85,25,159,43,0*72
$GAGSV,2,1,07,02,22,270,00,03,35,248,39,05,10,199,00,08,27,309,37,0*70
$GAGSV,2,2,07,12,35,083,40,24,47,083,44,25,73,281,44,,,,,0*4F
$GPRMC,164941.00,A,5243.3452604,N,00719.1550872,W,0.16,154.27,080122,0.0,E,R,V*4B
$GPGGA,164941.00,5243.3452604,N,00719.1550872,W,5,16,1.0,58.101,M,56.132,M,0.0,0000*62
$GNGSA,A,3,02,12,25,29,31,32,,,,,,,1.4,0.7,1.3,1*3F
$GNGSA,A,3,65,66,74,83,84,85,,,,,,,1.4,0.7,1.3,2*38
$GNGSA,A,3,02,03,08,12,24,25,,,,,,,1.4,0.7,1.3,3*38
$GPGSV,3,1,10,02,29,073,43,03,06,327,00,06,13,029,00,12,40,075,46,0*67
$GPGSV,3,2,10,24,06,135,00,25,78,070,47,26,10,264,00,29,54,174,45,0*62
$GPGSV,3,3,10,31,46,297,45,32,37,232,43,,,,,,,,,0*68
$GLGSV,2,1,08,65,21,252,39,66,28,317,42,73,05,101,00,74,50,087,45,0*7D
$GLGSV,2,2,08,76,12,290,00,83,16,021,31,84,52,083,34,85,25,159,43,0*72
$GAGSV,2,1,07,02,22,270,00,03,35,248,39,05,10,199,00,08,27,309,37,0*70
$GAGSV,2,2,07,12,35,083,40,24,47,083,44,25,73,281,44,,,,,0*4F
$GPRMC,164942.00,A,5243.3452631,N,00719.1550837,W,0.16,154.27,080122,0.0,E,R,V*4F
$GPGGA,164942.00,5243.3452631,N,00719.1550837,W,5,16,1.0,58.100,M,56.132,M,0.0,0000*67
$GNGSA,A,3,02,12,25,29,31,32,,,,,,,1.4,0.7,1.3,1*3F
$GNGSA,A,3,65,66,74,83,84,85,,,,,,,1.4,0.7,1.3,2*38
$GNGSA,A,3,02,03,08,12,24,25,,,,,,,1.4,0.7,1.3,3*38
$GPGSV,3,1,10,02,29,073,43,03,06,327,00,06,13,029,00,12,40,075,46,0*67
$GPGSV,3,2,10,24,06,135,00,25,78,070,47,26,10,264,00,29,54,174,45,0*62
$GPGSV,3,3,10,31,46,297,45,32,37,232,43,,,,,,,,,0*68
$GLGSV,2,1,08,65,21,252,39,66,28,317,42,73,05,101,00,74,50,087,46,0*7E
$GLGSV,2,2,08,76,12,290,00,83,16,021,31,84,52,083,34,85,25,159,43,0*72
$GAGSV,2,1,07,02,22,270,00,03,35,248,39,05,10,199,00,08,27,309,38,0*7F
$GAGSV,2,2,07,12,35,083,40,24,47,083,44,25,73,281,44,,,,,0*4F
$GPRMC,164943.00,A,5243.3452721,N,00719.1550822,W,0.16,154.27,080122,0.0,E,R,V*4A
$GPGGA,164943.00,5243.3452721,N,00719.1550822,W,5,16,1.0,58.104,M,56.132,M,0.0,0000*66
$GNGSA,A,3,02,12,25,29,31,32,,,,,,,1.4,0.7,1.3,1*3F
$GNGSA,A,3,65,66,74,83,84,85,,,,,,,1.4,0.7,1.3,2*38
$GNGSA,A,3,02,03,08,12,24,25,,,,,,,1.4,0.7,1.3,3*38
$GPGSV,3,1,10,02,29,073,43,03,06,327,00,06,13,029,00,12,40,075,46,0*67
$GPGSV,3,2,10,24,06,135,00,25,78,070,47,26,10,264,00,29,54,174,45,0*62
$GPGSV,3,3,10,31,46,297,45,32,37,232,43,,,,,,,,,0*68
$GLGSV,2,1,08,65,21,252,38,66,28,317,42,73,05,102,00,74,50,087,46,0*7C
$GLGSV,2,2,08,76,12,290,00,83,16,021,31,84,52,083,34,85,25,159,43,0*72
$GAGSV,2,1,07,02,22,270,00,03,35,248,39,05,10,199,00,08,27,309,38,0*7F
$GAGSV,2,2,07,12,35,083,40,24,47,083,44,25,73,281,44,,,,,0*4F
$GPRMC,164944.00,A,5243.3452816,N,00719.1550822,W,0.16,154.27,080122,0.0,E,R,V*46
$GPGGA,164944.00,5243.3452816,N,00719.1550822,W,5,16,1.0,58.102,M,56.132,M,0.0,0000*6C
$GNGSA,A,3,02,12,25,29,31,32,,,,,,,1.4,0.7,1.3,1*3F
$GNGSA,A,3,65,66,74,83,84,85,,,,,,,1.4,0.7,1.3,2*38
$GNGSA,A,3,02,03,08,12,24,25,,,,,,,1.4,0.7,1.3,3*38
$GPGSV,3,1,10,02,29,073,44,03,06,327,00,06,13,029,00,12,40,075,46,0*60
$GPGSV,3,2,10,24,06,135,00,25,78,070,47,26,10,264,00,29,54,174,45,0*62
$GPGSV,3,3,10,31,46,297,45,32,37,232,43,,,,,,,,,0*68
$GLGSV,2,1,08,65,21,252,39,66,28,317,41,73,05,102,00,74,50,087,45,0*7D
$GLGSV,2,2,08,76,12,290,00,83,16,021,31,84,52,083,34,85,25,159,43,0*72
$GAGSV,2,1,07,02,22,270,00,03,35,248,39,05,10,199,00,08,27,309,38,0*7F
$GAGSV,2,2,07,12,35,083,40,24,47,083,44,25,73,281,44,,,,,0*4F
$GPRMC,164945.00,A,5243.3452993,N,00719.1550833,W,0.16,154.27,080122,0.0,E,R,V*4B
$GPGGA,164945.00,5243.3452993,N,00719.1550833,W,5,16,1.0,58.097,M,56.132,M,0.0,0000*6C
$GNGSA,A,3,02,12,25,29,31,32,,,,,,,1.4,0.7,1.3,1*3F
$GNGSA,A,3,65,66,74,83,84,85,,,,,,,1.4,0.7,1.3,2*38
$GNGSA,A,3,02,03,08,12,24,25,,,,,,,1.4,0.7,1.3,3*38
$GPGSV,3,1,10,02,29,073,44,03,06,327,00,06,13,029,00,12,40,075,46,0*60
$GPGSV,3,2,10,24,06,135,00,25,78,070,47,26,10,264,00,29,54,174,45,0*62
$GPGSV,3,3,10,31,46,297,45,32,37,232,43,,,,,,,,,0*68
$GLGSV,2,1,08,65,21,252,39,66,28,317,41,73,05,102,00,74,50,087,46,0*7E
$GLGSV,2,2,08,76,12,290,00,83,16,021,31,84,52,083,34,85,25,159,43,0*72
$GAGSV,2,1,07,02,22,270,00,03,35,248,39,05,10,199,00,08,27,309,37,0*70
$GAGSV,2,2,07,12,35,083,40,24,47,083,44,25,73,281,44,,,,,0*4F
$GPRMC,164946.00,A,5243.3453042,N,00719.1550761,W,0.16,154.27,080122,0.0,E,R,V*44
$GPGGA,164946.00,5243.3453042,N,00719.1550761,W,5,16,1.0,58.096,M,56.132,M,0.0,0000*62
$GNGSA,A,3,02,12,25,29,31,32,,,,,,,1.4,0.7,1.3,1*3F
$GNGSA,A,3,65,66,74,83,84,85,,,,,,,1.4,0.7,1.3,2*38
$GNGSA,A,3,02,03,08,12,24,25,,,,,,,1.4,0.7,1.3,3*38
$GPGSV,3,1,10,02,29,073,44,03,06,327,00,06,13,029,00,12,40,075,46,0*60
$GPGSV,3,2,10,24,06,135,00,25,78,070,47,26,10,264,00,29,54,174,45,0*62
$GPGSV,3,3,10,31,46,297,45,32,37,232,43,,,,,,,,,0*68
$GLGSV,2,1,08,65,21,252,39,66,28,317,41,73,05,102,00,74,50,087,46,0*7E
$GLGSV,2,2,08,76,12,290,00,83,16,021,31,84,52,083,34,85,25,159,43,0*72
$GAGSV,2,1,07,02,22,270,00,03,35,248,39,05,10,199,00,08,27,309,38,0*7F
$GAGSV,2,2,07,12,35,083,40,24,47,083,44,25,73,281,44,,,,,0*4F
$GPRMC,164947.00,A,5243.3453156,N,00719.1550687,W,0.16,154.27,080122,0.0,E,R,V*48
$GPGGA,164947.00,5243.3453156,N,00719.1550687,W,5,16,1.0,58.106,M,56.132,M,0.0,0000*66
$GNGSA,A,3,02,12,25,29,31,32,,,,,,,1.4,0.7,1.3,1*3F
$GNGSA,A,3,65,66,74,83,84,85,,,,,,,1.4,0.7,1.3,2*38
$GNGSA,A,3,02,03,08,12,24,25,,,,,,,1.4,0.7,1.3,3*38
$GPGSV,3,1,10,02,29,073,44,03,06,327,00,06,13,029,00,12,40,075,46,0*60
$GPGSV,3,2,10,24,06,135,00,25,78,070,47,26,10,264,00,29,54,174,45,0*62
$GPGSV,3,3,10,31,46,297,45,32,37,232,43,,,,,,,,,0*68
$GLGSV,2,1,08,65,21,252,39,66,28,317,41,73,05,102,00,74,50,087,46,0*7E
$GLGSV,2,2,08,76,12,290,00,83,16,021,31,84,52,083,34,85,25,159,43,0*72
$GAGSV,2,1,07,02,22,270,00,03,35,248,39,05,10,199,00,08,27,309,38,0*7F
$GAGSV,2,2,07,12,35,083,40,24,47,083,44,25,73,281,44,,,,,0*4F
$GPRMC,164948.00,A,5243.3453256,N,00719.1550647,W,0.16,154.27,080122,0.0,E,R,V*48
$GPGGA,164948.00,5243.3453256,N,00719.1550647,W,5,16,1.0,58.114,M,56.132,M,0.0,0000*65
$GNGSA,A,3,02,12,25,29,31,32,,,,,,,1.4,0.7,1.3,1*3F
$GNGSA,A,3,65,66,74,83,84,85,,,,,,,1.4,0.7,1.3,2*38
$GNGSA,A,3,02,03,08,12,24,25,,,,,,,1.4,0.7,1.3,3*38
$GPGSV,3,1,10,02,29,073,44,03,06,327,00,06,13,029,00,12,40,075,46,0*60
$GPGSV,3,2,10,24,06,135,00,25,78,070,47,26,10,264,00,29,54,174,45,0*62
$GPGSV,3,3,10,31,46,297,45,32,37,232,43,,,,,,,,,0*68
$GLGSV,2,1,08,65,21,252,39,66,28,317,41,73,05,102,00,74,50,087,46,0*7E
$GLGSV,2,2,08,76,12,290,00,83,16,021,31,84,52,083,35,85,25,159,43,0*73
$GAGSV,2,1,07,02,22,270,00,03,35,248,39,05,10,199,00,08,27,309,38,0*7F
$GAGSV,2,2,07,12,35,083,40,24,47,083,44,25,73,281,43,,,,,0*48
$GPRMC,164949.00,A,5243.3453281,N,00719.1550546,W,0.16,154.27,080122,0.0,E,R,V*41
$GPGGA,164949.00,5243.3453281,N,00719.1550546,W,5,16,1.0,58.150,M,56.132,M,0.0,0000*6C
$GNGSA,A,3,02,12,25,29,31,32,,,,,,,1.4,0.7,1.3,1*3F
$GNGSA,A,3,65,66,74,83,84,85,,,,,,,1.4,0.7,1.3,2*38
$GNGSA,A,3,02,03,08,12,24,25,,,,,,,1.4,0.7,1.3,3*38
$GPGSV,3,1,10,02,29,073,44,03,06,327,00,06,13,029,00,12,40,075,46,0*60
$GPGSV,3,2,10,24,06,135,00,25,78,070,47,26,10,264,00,29,54,174,45,0*62
$GPGSV,3,3,10,31,46,297,45,32,37,232,43,,,,,,,,,0*68
$GLGSV,2,1,08,65,21,252,39,66,28,317,41,73,05,102,00,74,50,087,46,0*7E
$GLGSV,2,2,08,76,12,290,00,83,16,021,31,84,52,083,34,85,25,159,43,0*72
$GAGSV,2,1,07,02,22,270,00,03,35,248,39,05,10,199,00,08,27,309,38,0*7F
$GAGSV,2,2,07,12,35,083,40,24,47,083,44,25,73,281,43,,,,,0*48
$GPRMC,164950.00,A,5243.3453324,N,00719.1550464,W,0.16,154.27,080122,0.0,E,R,V*46
$GPGGA,164950.00,5243.3453324,N,00719.1550464,W,5,16,1.0,58.167,M,56.132,M,0.2,0000*6D
$GNGSA,A,3,02,12,25,29,31,32,,,,,,,1.4,0.7,1.3,1*3F
$GNGSA,A,3,65,66,74,83,84,85,,,,,,,1.4,0.7,1.3,2*38
$GNGSA,A,3,02,03,08,12,24,25,,,,,,,1.4,0.7,1.3,3*38
$GPGSV,3,1,10,02,29,073,44,03,06,327,00,06,13,029,00,12,40,075,46,0*60
$GPGSV,3,2,10,24,06,135,00,25,78,070,47,26,10,264,00,29,54,174,45,0*62
$GPGSV,3,3,10,31,46,297,45,32,37,232,43,,,,,,,,,0*68
$GLGSV,2,1,08,65,21,252,39,66,28,317,41,73,05,102,00,74,50,087,46,0*7E
$GLGSV,2,2,08,76,12,290,00,83,16,021,30,84,52,083,34,85,25,159,43,0*73
$GAGSV,2,1,07,02,22,270,00,03,35,248,39,05,10,199,00,08,27,309,38,0*7F
$GAGSV,2,2,07,12,35,083,40,24,47,083,44,25,73,281,43,,,,,0*48
$GPRMC,164951.00,A,5243.3453387,N,00719.1550406,W,0.16,154.27,080122,0.0,E,R,V*4A
$GPGGA,164951.00,5243.3453387,N,00719.1550406,W,5,16,1.0,58.172,M,56.132,M,0.0,0000*67
$GNGSA,A,3,02,12,25,29,31,32,,,,,,,1.4,0.7,1.3,1*3F
$GNGSA,A,3,65,66,74,83,84,85,,,,,,,1.4,0.7,1.3,2*38
$GNGSA,A,3,02,03,08,12,24,25,,,,,,,1.4,0.7,1.3,3*38
$GPGSV,3,1,10,02,29,073,44,03,06,327,00,06,13,029,00,12,40,075,46,0*60
$GPGSV,3,2,10,24,06,135,00,25,78,070,47,26,10,264,00,29,54,174,45,0*62
$GPGSV,3,3,10,31,46,297,45,32,37,232,43,,,,,,,,,0*68
$GLGSV,2,1,08,65,21,252,39,66,28,317,41,73,05,102,00,74,50,087,46,0*7E
$GLGSV,2,2,08,76,12,290,00,83,16,021,30,84,52,083,34,85,25,159,43,0*73
$GAGSV,2,1,07,02,22,270,00,03,35,248,39,05,10,199,00,08,27,309,38,0*7F
$GAGSV,2,2,07,12,35,083,40,24,47,083,44,25,73,281,43,,,,,0*48
$GPRMC,164952.00,A,5243.3453521,N,00719.1550387,W,0.16,154.27,080122,0.0,E,R,V*4D
$GPGGA,164952.00,5243.3453521,N,00719.1550387,W,5,16,1.0,58.180,M,56.132,M,0.0,0000*6D
$GNGSA,A,3,02,12,25,29,31,32,,,,,,,1.4,0.7,1.3,1*3F
$GNGSA,A,3,65,66,74,83,84,85,,,,,,,1.4,0.7,1.3,2*38
$GNGSA,A,3,02,03,08,12,24,25,,,,,,,1.4,0.7,1.3,3*38
$GPGSV,3,1,10,02,29,073,44,03,06,327,00,06,13,029,00,12,40,075,46,0*60
$GPGSV,3,2,10,24,06,135,00,25,78,070,47,26,10,264,00,29,54,174,45,0*62
$GPGSV,3,3,10,31,46,297,45,32,37,232,43,,,,,,,,,0*68
$GLGSV,2,1,08,65,21,252,39,66,28,317,41,73,05,102,00,74,50,087,46,0*7E
$GLGSV,2,2,08,76,12,290,00,83,16,021,30,84,52,083,34,85,25,159,43,0*73
$GAGSV,2,1,07,02,22,270,00,03,35,248,39,05,10,199,00,08,27,309,38,0*7F
$GAGSV,2,2,07,12,35,083,40,24,47,083,44,25,73,281,43,,,,,0*48
$GPRMC,164953.00,A,5243.3453599,N,00719.1550310,W,0.16,154.27,080122,0.0,E,R,V*41
$GPGGA,164953.00,5243.3453599,N,00719.1550310,W,5,16,1.0,58.177,M,56.132,M,0.0,0000*69
$GNGSA,A,3,02,12,25,29,31,32,,,,,,,1.4,0.7,1.3,1*3F
$GNGSA,A,3,65,66,74,83,84,85,,,,,,,1.4,0.7,1.3,2*38
$GNGSA,A,3,02,03,08,12,24,25,,,,,,,1.4,0.7,1.3,3*38
$GPGSV,3,1,10,02,29,073,44,03,06,327,00,06,13,029,00,12,40,075,46,0*60
$GPGSV,3,2,10,24,06,135,00,25,78,070,47,26,10,264,00,29,54,174,45,0*62
$GPGSV,3,3,10,31,46,297,45,32,37,232,43,,,,,,,,,0*68
$GLGSV,2,1,08,65,21,252,39,66,28,317,41,73,05,102,00,74,50,087,46,0*7E
$GLGSV,2,2,08,76,12,290,00,83,16,021,30,84,52,083,35,85,25,159,43,0*72
$GAGSV,2,1,07,02,22,270,00,03,35,248,39,05,10,199,00,08,27,309,38,0*7F
$GAGSV,2,2,07,12,35,083,40,24,47,083,44,25,73,281,43,,,,,0*48
$GPRMC,164954.00,A,5243.3453714,N,00719.1550264,W,0.16,154.27,080122,0.0,E,R,V*43
$GPGGA,164954.00,5243.3453714,N,00719.1550264,W,5,16,1.0,58.185,M,56.132,M,0.0,0000*66
$GNGSA,A,3,02,12,25,29,31,32,,,,,,,1.4,0.7,1.3,1*3F
$GNGSA,A,3,65,66,74,83,84,85,,,,,,,1.4,0.7,1.3,2*38
$GNGSA,A,3,02,03,08,12,24,25,,,,,,,1.4,0.7,1.3,3*38
$GPGSV,3,1,10,02,29,073,44,03,06,327,00,06,13,028,00,12,40,075,46,0*61
$GPGSV,3,2,10,24,06,135,00,25,78,070,47,26,10,264,00,29,54,174,45,0*62
$GPGSV,3,3,10,31,46,297,45,32,37,232,43,,,,,,,,,0*68
$GLGSV,2,1,08,65,21,252,39,66,28,317,41,73,05,102,00,74,50,087,46,0*7E
$GLGSV,2,2,08,76,12,290,00,83,16,021,30,84,52,083,35,85,25,159,43,0*72
$GAGSV,2,1,07,02,22,270,00,03,35,248,39,05,10,199,00,08,27,309,38,0*7F
$GAGSV,2,2,07,12,35,083,40,24,47,083,44,25,73,281,43,,,,,0*48
$GPRMC,164955.00,A,5243.3453835,N,00719.1550273,W,0.16,154.27,080122,0.0,E,R,V*48
$GPGGA,164955.00,5243.3453835,N,00719.1550273,W,5,16,1.0,58.176,M,56.132,M,0.0,0000*61
$GNGSA,A,3,02,12,25,29,31,32,,,,,,,1.4,0.7,1.3,1*3F
$GNGSA,A,3,65,66,74,83,84,85,,,,,,,1.4,0.7,1.3,2*38
$GNGSA,A,3,02,03,08,12,24,25,,,,,,,1.4,0.7,1.3,3*38
$GPGSV,3,1,10,02,29,073,44,03,06,327,00,06,13,028,00,12,40,075,46,0*61
$GPGSV,3,2,10,24,06,135,00,25,78,070,47,26,10,264,00,29,54,174,45,0*62
$GPGSV,3,3,10,31,46,297,45,32,37,232,43,,,,,,,,,0*68
$GLGSV,2,1,08,65,21,252,39,66,28,317,41,73,05,102,00,74,50,087,46,0*7E
$GLGSV,2,2,08,76,12,290,00,83,16,021,30,84,52,083,35,85,25,159,43,0*72
$GAGSV,2,1,07,02,22,270,00,03,35,248,39,05,10,199,00,08,27,309,38,0*7F
$GAGSV,2,2,07,12,35,083,40,24,47,083,44,25,73,281,43,,,,,0*48
$GPRMC,164956.00,A,5243.3453962,N,00719.1550227,W,0.16,154.27,080122,0.0,E,R,V*49
$GPGGA,164956.00,5243.3453962,N,00719.1550227,W,5,16,1.0,58.181,M,56.132,M,0.0,0000*68
$GNGSA,A,3,02,12,25,29,31,32,,,,,,,1.4,0.7,1.3,1*3F
$GNGSA,A,3,65,66,74,83,84,85,,,,,,,1.4,0.7,1.3,2*38
$GNGSA,A,3,02,03,08,12,24,25,,,,,,,1.4,0.7,1.3,3*38
$GPGSV,3,1,10,02,29,073,44,03,06,327,00,06,13,028,00,12,40,075,46,0*61
$GPGSV,3,2,10,24,06,135,00,25,78,070,47,26,10,264,00,29,54,174,45,0*62
$GPGSV,3,3,10,31,46,297,45,32,37,232,43,,,,,,,,,0*68
$GLGSV,2,1,08,65,21,252,39,66,28,317,41,73,05,102,00,74,50,087,46,0*7E
$GLGSV,2,2,08,76,12,290,00,83,16,021,30,84,52,083,35,85,25,159,43,0*72
$GAGSV,2,1,07,02,22,270,00,03,35,248,39,05,10,199,00,08,27,309,38,0*7F
$GAGSV,2,2,07,12,35,083,40,24,47,083,44,25,73,281,43,,,,,0*48
$GPRMC,164957.00,A,5243.3454096,N,00719.1550252,W,0.16,154.27,080122,0.0,E,R,V*4F
$GPGGA,164957.00,5243.3454096,N,00719.1550252,W,5,16,1.0,58.190,M,56.132,M,0.0,0000*6E
$GNGSA,A,3,02,12,25,29,31,32,,,,,,,1.4,0.7,1.3,1*3F
$GNGSA,A,3,65,66,74,83,84,85,,,,,,,1.4,0.7,1.3,2*38
$GNGSA,A,3,02,03,08,12,24,25,,,,,,,1.4,0.7,1.3,3*38
$GPGSV,3,1,10,02,29,073,44,03,06,327,00,06,13,028,00,12,40,075,46,0*61
$GPGSV,3,2,10,24,06,135,00,25,78,070,47,26,10,264,00,29,54,174,45,0*62
$GPGSV,3,3,10,31,46,297,45,32,37,232,43,,,,,,,,,0*68
$GLGSV,2,1,08,65,21,252,39,66,28,317,41,73,05,102,00,74,50,087,46,0*7E
$GLGSV,2,2,08,76,12,290,00,83,16,021,30,84,52,083,35,85,25,159,43,0*72
$GAGSV,2,1,07,02,22,270,00,03,35,248,39,05,10,199,00,08,27,309,37,0*70
$GAGSV,2,2,07,12,35,083,40,24,47,083,44,25,73,281,43,,,,,0*48
$GPRMC,164958.00,A,5243.3454190,N,00719.1550185,W,0.16,154.27,080122,0.0,E,R,V*4E
$GPGGA,164958.00,5243.3454190,N,00719.1550185,W,5,16,1.0,58.202,M,56.132,M,0.0,0000*67
$GNGSA,A,3,02,12,25,29,31,32,,,,,,,1.4,0.7,1.3,1*3F
$GNGSA,A,3,65,66,74,83,84,85,,,,,,,1.4,0.7,1.3,2*38
$GNGSA,A,3,02,03,08,12,24,25,,,,,,,1.4,0.7,1.3,3*38
$GPGSV,3,1,10,02,29,073,44,03,06,327,00,06,13,028,00,12,40,075,46,0*61
$GPGSV,3,2,10,24,06,135,00,25,78,070,47,26,10,264,00,29,54,174,45,0*62
$GPGSV,3,3,10,31,46,297,45,32,37,232,43,,,,,,,,,0*68
$GLGSV,2,1,08,65,21,252,39,66,28,317,41,73,05,102,00,74,50,087,46,0*7E
$GLGSV,2,2,08,76,12,290,00,83,16,021,30,84,52,083,35,85,26,159,43,0*71
$GAGSV,2,1,07,02,22,270,00,03,35,248,39,05,10,199,00,08,27,309,37,0*70
$GAGSV,2,2,07,12,35,083,40,24,47,083,44,25,73,281,43,,,,,0*48
$GPRMC,164959.00,A,5243.3454252,N,00719.1550187,W,0.16,154.27,080122,0.0,E,R,V*40
$GPGGA,164959.00,5243.3454252,N,00719.1550187,W,5,16,1.0,58.203,M,56.132,M,0.0,0000*68
$GNGSA,A,3,02,12,25,29,31,32,,,,,,,1.4,0.7,1.3,1*3F
$GNGSA,A,3,65,66,74,83,84,85,,,,,,,1.4,0.7,1.3,2*38
$GNGSA,A,3,02,03,08,12,24,25,,,,,,,1.4,0.7,1.3,3*38
$GPGSV,3,1,10,02,29,073,44,03,06,327,00,06,13,028,00,12,39,075,46,0*6F
$GPGSV,3,2,10,24,06,135,00,25,78,070,47,26,10,264,00,29,54,174,45,0*62
$GPGSV,3,3,10,31,46,297,45,32,37,232,43,,,,,,,,,0*68
$GLGSV,2,1,08,65,21,252,39,66,28,317,41,73,05,102,00,74,50,087,46,0*7E
$GLGSV,2,2,08,76,12,290,00,83,16,021,30,84,52,083,35,85,26,159,43,0*71
$GAGSV,2,1,07,02,22,270,00,03,35,248,39,05,10,199,00,08,27,309,37,0*70
$GAGSV,2,2,07,12,35,083,40,24,47,083,44,25,73,281,43,,,,,0*48
$GPRMC,165000.00,A,5243.3454313,N,00719.1550152,W,0.16,154.27,080122,0.0,E,R,V*48
$GPGGA,165000.00,5243.3454313,N,00719.1550152,W,5,16,1.0,58.212,M,56.132,M,0.2,0000*62
$GNGSA,A,3,02,12,25,29,31,32,,,,,,,1.4,0.7,1.3,1*3F
$GNGSA,A,3,65,66,74,83,84,85,,,,,,,1.4,0.7,1.3,2*38
$GNGSA,A,3,02,03,08,12,24,25,,,,,,,1.4,0.7,1.3,3*38
$GPGSV,3,1,10,02,29,073,44,03,06,327,00,06,13,028,00,12,39,075,46,0*6F
$GPGSV,3,2,10,24,06,135,00,25,78,070,47,26,10,264,00,29,54,174,45,0*62
$GPGSV,3,3,10,31,46,297,45,32,37,232,43,,,,,,,,,0*68
$GLGSV,2,1,08,65,21,252,39,66,28,317,41,73,05,102,00,74,50,087,46,0*7E
$GLGSV,2,2,08,76,12,290,00,83,16,021,30,84,52,083,35,85,26,159,43,0*71
$GAGSV,2,1,07,02,22,270,00,03,35,248,39,05,10,199,00,08,27,309,37,0*70
$GAGSV,2,2,07,12,35,083,40,24,47,083,44,25,73,281,43,,,,,0*48
$GPRMC,165001.00,A,5243.3454443,N,00719.1550138,W,0.16,154.27,080122,0.0,E,R,V*47
$GPGGA,165001.00,5243.3454443,N,00719.1550138,W,5,16,1.0,58.220,M,56.132,M,0.0,0000*6E
$GNGSA,A,3,02,12,25,29,31,32,,,,,,,1.4,0.7,1.3,1*3F
$GNGSA,A,3,65,66,74,83,84,85,,,,,,,1.4,0.7,1.3,2*38
$GNGSA,A,3,02,03,08,12,24,25,,,,,,,1.4,0.7,1.3,3*38
$GPGSV,3,1,10,02,29,073,44,03,06,327,00,06,13,028,00,12,39,075,46,0*6F
$GPGSV,3,2,10,24,06,135,00,25,78,070,47,26,10,264,00,29,54,174,45,0*62
$GPGSV,3,3,10,31,46,297,45,32,37,232,43,,,,,,,,,0*68
$GLGSV,2,1,08,65,21,252,39,66,28,317,41,73,05,102,00,74,50,087,46,0*7E
$GLGSV,2,2,08,76,12,290,00,83,16,021,30,84,52,083,35,85,26,159,43,0*71
$GAGSV,2,1,07,02,22,270,00,03,35,248,39,05,10,199,00,08,27,309,37,0*70
$GAGSV,2,2,07,12,35,083,40,24,47,083,44,25,73,281,43,,,,,0*48
$GPRMC,165002.00,A,5243.3454543,N,00719.1550080,W,0.16,154.27,080122,0.0,E,R,V*47
$GPGGA,165002.00,5243.3454543,N,00719.1550080,W,5,16,1.0,58.234,M,56.132,M,0.0,0000*6B
$GNGSA,A,3,02,12,25,29,31,32,,,,,,,1.4,0.7,1.3,1*3F
$GNGSA,A,3,65,66,74,83,84,85,,,,,,,1.4,0.7,1.3,2*38
$GNGSA,A,3,02,03,08,12,24,25,,,,,,,1.4,0.7,1.3,3*38
$GPGSV,3,1,10,02,29,073,44,03,06,327,00,06,13,028,00,12,39,075,46,0*6F
$GPGSV,3,2,10,24,06,135,00,25,78,070,47,26,10,264,00,29,54,174,45,0*62
$GPGSV,3,3,10,31,46,297,45,32,37,232,43,,,,,,,,,0*68
$GLGSV,2,1,08,65,21,252,40,66,28,317,41,73,05,102,00,74,50,087,46,0*70
$GLGSV,2,2,08,76,12,290,00,83,16,021,30,84,52,083,35,85,26,159,43,0*71
$GAGSV,2,1,07,02,22,270,00,03,35,248,39,05,10,199,00,08,27,309,37,0*70
$GAGSV,2,2,07,12,35,083,40,24,47,083,44,25,73,281,43,,,,,0*48
$GPRMC,165003.00,A,5243.3454532,N,00719.1550104,W,0.16,154.27,080122,0.0,E,R,V*4D
$GPGGA,165003.00,5243.3454532,N,00719.1550104,W,5,16,1.0,58.251,M,56.132,M,1.0,0000*63
$GNGSA,A,3,02,12,25,29,31,32,,,,,,,1.4,0.7,1.3,1*3F
$GNGSA,A,3,65,66,74,83,84,85,,,,,,,1.4,0.7,1.3,2*38
$GNGSA,A,3,02,03,08,12,24,25,,,,,,,1.4,0.7,1.3,3*38
$GPGSV,3,1,10,02,29,073,44,03,06,327,00,06,13,028,00,12,39,075,46,0*6F
$GPGSV,3,2,10,24,06,135,00,25,78,070,47,26,10,264,00,29,54,174,45,0*62
$GPGSV,3,3,10,31,46,297,45,32,37,232,43,,,,,,,,,0*68
$GLGSV,2,1,08,65,21,252,40,66,28,317,41,73,05,102,00,74,50,087,46,0*70
$GLGSV,2,2,08,76,12,290,00,83,16,021,30,84,52,083,35,85,26,159,43,0*71
$GAGSV,2,1,07,02,22,270,00,03,35,248,39,05,10,199,00,08,27,309,37,0*70
$GAGSV,2,2,07,12,35,083,40,24,47,083,44,25,73,281,43,,,,,0*48
$GPRMC,165004.00,A,5243.3454498,N,00719.1550100,W,0.16,154.27,080122,0.0,E,R,V*4F
$GPGGA,165004.00,5243.3454498,N,00719.1550100,W,5,16,1.0,58.270,M,56.132,M,0.8,0000*6B
$GNGSA,A,3,02,12,25,29,31,32,,,,,,,1.4,0.7,1.3,1*3F
$GNGSA,A,3,65,66,74,83,84,85,,,,,,,1.4,0.7,1.3,2*38
$GNGSA,A,3,02,03,08,12,24,25,,,,,,,1.4,0.7,1.3,3*38
$GPGSV,3,1,10,02,29,073,44,03,06,327,00,06,13,028,00,12,39,075,46,0*6F
$GPGSV,3,2,10,24,06,135,00,25,78,070,47,26,10,264,00,29,54,174,45,0*62
$GPGSV,3,3,10,31,46,297,45,32,37,232,43,,,,,,,,,0*68
$GLGSV,2,1,08,65,21,252,40,66,28,317,41,73,05,102,00,74,50,087,46,0*70
$GLGSV,2,2,08,76,12,290,00,83,16,021,30,84,52,083,35,85,26,159,43,0*71
$GAGSV,2,1,07,02,22,270,00,03,35,248,39,05,10,199,00,08,27,309,37,0*70
$GAGSV,2,2,07,12,35,083,40,24,47,083,44,25,73,281,43,,,,,0*48
$GPRMC,165005.00,A,5243.3454472,N,00719.1550131,W,0.16,154.27,080122,0.0,E,R,V*48
$GPGGA,165005.00,5243.3454472,N,00719.1550131,W,5,16,1.0,58.277,M,56.132,M,1.6,0000*64
$GNGSA,A,3,02,12,25,29,31,32,,,,,,,1.4,0.7,1.3,1*3F
$GNGSA,A,3,65,66,74,83,84,85,,,,,,,1.4,0.7,1.3,2*38
$GNGSA,A,3,02,03,08,12,24,25,,,,,,,1.4,0.7,1.3,3*38
$GPGSV,3,1,10,02,29,073,43,03,06,327,00,06,13,028,00,12,39,075,46,0*68
$GPGSV,3,2,10,24,06,135,00,25,78,070,47,26,10,264,00,29,54,174,45,0*62
$GPGSV,3,3,10,31,46,297,45,32,37,232,43,,,,,,,,,0*68
$GLGSV,2,1,08,65,21,252,40,66,28,317,41,73,05,102,00,74,50,087,46,0*70
$GLGSV,2,2,08,76,12,290,00,83,16,021,30,84,52,083,35,85,26,159,43,0*71
$GAGSV,2,1,07,02,22,270,00,03,35,248,39,05,10,199,00,08,27,309,37,0*70
$GAGSV,2,2,07,12,35,083,40,24,47,083,44,25,73,281,44,,,,,0*4F
$GPRMC,165006.00,A,5243.3454499,N,00719.1550114,W,0.16,154.27,080122,0.0,E,R,V*49
$GPGGA,165006.00,5243.3454499,N,00719.1550114,W,5,16,1.0,58.289,M,56.132,M,0.8,0000*6B
$GNGSA,A,3,02,12,25,29,31,32,,,,,,,1.4,0.7,1.3,1*3F
$GNGSA,A,3,65,66,74,83,84,85,,,,,,,1.4,0.7,1.3,2*38
$GNGSA,A,3,02,03,08,12,24,25,,,,,,,1.4,0.7,1.3,3*38
$GPGSV,3,1,10,02,29,073,43,03,06,327,00,06,13,028,00,12,39,075,46,0*68
$GPGSV,3,2,10,24,06,135,00,25,78,070,47,26,10,264,00,29,54,174,45,0*62
$GPGSV,3,3,10,31,46,297,45,32,37,232,43,,,,,,,,,0*68
$GLGSV,2,1,08,65,21,252,40,66,28,317,41,73,05,102,00,74,50,087,46,0*70
$GLGSV,2,2,08,76,12,290,00,83,16,021,30,84,52,083,35,85,26,159,43,0*71
$GAGSV,2,1,07,02,22,270,00,03,35,248,39,05,10,199,00,08,27,309,37,0*70
$GAGSV,2,2,07,12,35,083,40,24,47,083,44,25,73,281,44,,,,,0*4F
$GPRMC,165007.00,A,5243.3454529,N,00719.1550076,W,0.16,154.27,080122,0.0,E,R,V*47
$GPGGA,165007.00,5243.3454529,N,00719.1550076,W,5,16,1.0,58.299,M,56.132,M,0.2,0000*6E
$GNGSA,A,3,02,12,25,29,31,32,,,,,,,1.4,0.7,1.3,1*3F
$GNGSA,A,3,65,66,74,83,84,85,,,,,,,1.4,0.7,1.3,2*38
$GNGSA,A,3,02,03,08,12,24,25,,,,,,,1.4,0.7,1.3,3*38
$GPGSV,3,1,10,02,29,073,43,03,06,327,00,06,13,028,00,12,39,075,46,0*68
$GPGSV,3,2,10,24,06,135,00,25,78,070,47,26,10,264,00,29,54,174,45,0*62
$GPGSV,3,3,10,31,46,297,45,32,37,232,44,,,,,,,,,0*6F
$GLGSV,2,1,08,65,21,252,40,66,28,317,41,73,05,102,00,74,50,087,46,0*70
$GLGSV,2,2,08,76,12,290,00,83,16,021,30,84,52,083,35,85,26,159,43,0*71
$GAGSV,2,1,07,02,22,270,00,03,35,248,39,05,10,199,00,08,27,309,37,0*70
$GAGSV,2,2,07,12,35,083,40,24,47,083,44,25,73,281,43,,,,,0*48
$GPRMC,165008.00,A,5243.3454667,N,00719.1550082,W,0.16,154.27,080122,0.0,E,R,V*4A
$GPGGA,165008.00,5243.3454667,N,00719.1550082,W,5,16,1.0,58.295,M,56.132,M,0.0,0000*6D
$GNGSA,A,3,02,12,25,29,31,32,,,,,,,1.4,0.7,1.3,1*3F
$GNGSA,A,3,65,66,74,83,84,85,,,,,,,1.4,0.7,1.3,2*38
$GNGSA,A,3,02,03,08,12,24,25,,,,,,,1.4,0.7,1.3,3*38
$GPGSV,3,1,10,02,29,073,43,03,06,327,00,06,13,028,00,12,39,075,46,0*68
$GPGSV,3,2,10,24,06,135,00,25,78,070,47,26,10,264,00,29,54,174,45,0*62
$GPGSV,3,3,10,31,46,297,45,32,37,232,43,,,,,,,,,0*68
$GLGSV,2,1,08,65,21,252,40,66,28,317,41,73,05,102,00,74,50,087,46,0*70
$GLGSV,2,2,08,76,12,290,00,83,16,021,30,84,52,083,35,85,26,159,43,0*71
$GAGSV,2,1,07,02,22,270,00,03,35,248,39,05,10,199,00,08,27,309,37,0*70
$GAGSV,2,2,07,12,35,083,40,24,47,083,44,25,73,281,43,,,,,0*48
$GPRMC,165009.00,A,5243.3454733,N,00719.1550120,W,0.16,154.27,080122,0.0,E,R,V*42
$GPGGA,165009.00,5243.3454733,N,00719.1550120,W,5,16,1.0,58.294,M,56.132,M,1.0,0000*65
$GNGSA,A,3,02,12,25,29,31,32,,,,,,,1.4,0.7,1.3,1*3F
$GNGSA,A,3,65,66,74,83,84,85,,,,,,,1.4,0.7,1.3,2*38
$GNGSA,A,3,02,03,08,12,24,25,,,,,,,1.4,0.7,1.3,3*38
$GPGSV,3,1,10,02,29,073,43,03,06,327,00,06,13,028,00,12,39,075,46,0*68
$GPGSV,3,2,10,24,06,135,00,25,78,070,47,26,10,264,00,29,54,174,45,0*62
$GPGSV,3,3,10,31,46,297,45,32,37,232,43,,,,,,,,,0*68
$GLGSV,2,1,08,65,21,252,39,66,28,317,41,73,05,102,00,74,50,087,46,0*7E
$GLGSV,2,2,08,76,12,290,00,83,16,021,30,84,52,083,35,85,26,159,43,0*71
$GAGSV,2,1,07,02,22,270,00,03,35,248,39,05,10,199,00,08,27,309,37,0*70
$GAGSV,2,2,07,12,35,083,40,24,47,083,44,25,73,281,44,,,,,0*4F
$GPRMC,165010.00,A,5243.3454792,N,00719.1550087,W,0.16,154.27,080122,0.0,E,R,V*4D
$GPGGA,165010.00,5243.3454792,N,00719.1550087,W,5,16,1.0,58.287,M,56.132,M,0.6,0000*6F
$GNGSA,A,3,02,12,25,29,31,32,,,,,,,1.4,0.7,1.3,1*3F
$GNGSA,A,3,65,66,74,83,84,85,,,,,,,1.4,0.7,1.3,2*38
$GNGSA,A,3,02,03,08,12,24,25,,,,,,,1.4,0.7,1.3,3*38
$GPGSV,3,1,10,02,29,073,43,03,06,327,00,06,13,028,00,12,39,075,46,0*68
$GPGSV,3,2,10,24,06,135,00,25,78,070,47,26,10,264,00,29,54,174,45,0*62
$GPGSV,3,3,10,31,46,297,45,32,37,232,43,,,,,,,,,0*68
$GLGSV,2,1,08,65,21,252,39,66,28,317,42,73,05,102,00,74,50,087,46,0*7D
$GLGSV,2,2,08,76,12,290,00,83,16,021,30,84,52,083,35,85,26,159,43,0*71
$GAGSV,2,1,07,02,22,270,00,03,35,248,39,05,10,199,00,08,27,309,37,0*70
$GAGSV,2,2,07,12,35,083,40,24,47,083,44,25,73,281,44,,,,,0*4F
$GPRMC,165011.00,A,5243.3454813,N,00719.1550122,W,0.16,154.27,080122,0.0,E,R,V*44
$GPGGA,165011.00,5243.3454813,N,00719.1550122,W,5,16,1.0,58.298,M,56.132,M,1.4,0000*6B
$GNGSA,A,3,02,12,25,29,31,32,,,,,,,1.4,0.7,1.3,1*3F
$GNGSA,A,3,65,66,74,83,84,85,,,,,,,1.4,0.7,1.3,2*38
$GNGSA,A,3,02,03,08,12,24,25,,,,,,,1.4,0.7,1.3,3*38
$GPGSV,3,1,10,02,29,073,43,03,06,327,00,06,13,028,00,12,39,075,46,0*68
$GPGSV,3,2,10,24,06,135,00,25,78,070,47,26,10,264,00,29,54,174,45,0*62
$GPGSV,3,3,10,31,46,297,45,32,37,232,43,,,,,,,,,0*68
$GLGSV,2,1,08,65,21,252,39,66,28,317,42,73,05,102,00,74,50,087,46,0*7D
$GLGSV,2,2,08,76,12,290,00,83,16,021,30,84,52,083,35,85,26,159,43,0*71
$GAGSV,2,1,07,02,22,270,00,03,35,248,39,05,10,199,00,08,27,309,37,0*70
$GAGSV,2,2,07,12,35,083,40,24,47,083,44,25,73,281,44,,,,,0*4F
$GPRMC,165012.00,A,5243.3454880,N,00719.1550144,W,0.16,154.27,080122,0.0,E,R,V*4D
$GPGGA,165012.00,5243.3454880,N,00719.1550144,W,5,16,1.0,58.296,M,56.132,M,0.0,0000*69
$GNGSA,A,3,02,12,25,29,31,32,,,,,,,1.4,0.7,1.3,1*3F
$GNGSA,A,3,65,66,74,83,84,85,,,,,,,1.4,0.7,1.3,2*38
$GNGSA,A,3,02,03,08,12,24,25,,,,,,,1.4,0.7,1.3,3*38
$GPGSV,3,1,10,02,29,073,44,03,06,327,00,06,13,028,00,12,39,075,46,0*6F
$GPGSV,3,2,10,24,06,135,00,25,78,070,47,26,10,264,00,29,54,174,45,0*62
$GPGSV,3,3,10,31,46,297,45,32,37,232,43,,,,,,,,,0*68
$GLGSV,2,1,08,65,21,252,40,66,28,317,42,73,05,102,00,74,50,087,46,0*73
$GLGSV,2,2,08,76,12,290,00,83,16,021,30,84,52,083,35,85,26,159,43,0*71
$GAGSV,2,1,07,02,22,270,00,03,35,248,39,05,10,199,00,08,27,309,37,0*70
$GAGSV,2,2,07,12,35,083,40,24,47,083,44,25,73,281,44,,,,,0*4F
$GPRMC,165013.00,A,5243.3454979,N,00719.1550182,W,0.16,154.27,080122,0.0,E,R,V*41
$GPGGA,165013.00,5243.3454979,N,00719.1550182,W,5,16,1.0,58.302,M,56.132,M,0.0,0000*69
$GNGSA,A,3,02,12,25,29,31,32,,,,,,,1.4,0.7,1.3,1*3F
$GNGSA,A,3,65,66,74,83,84,85,,,,,,,1.4,0.7,1.3,2*38
$GNGSA,A,3,02,03,08,12,24,25,,,,,,,1.4,0.7,1.3,3*38
$GPGSV,3,1,10,02,29,073,44,03,06,327,00,06,13,028,00,12,39,075,46,0*6F
$GPGSV,3,2,10,24,06,135,00,25,78,070,47,26,10,264,00,29,54,174,45,0*62
$GPGSV,3,3,10,31,46,297,45,32,37,232,43,,,,,,,,,0*68
$GLGSV,2,1,08,65,21,252,40,66,28,317,42,73,05,102,00,74,50,087,46,0*73
$GLGSV,2,2,08,76,12,290,00,83,16,021,30,84,52,083,35,85,26,159,43,0*71
$GAGSV,2,1,07,02,22,270,00,03,35,248,40,05,10,199,00,08,27,309,37,0*7E
$GAGSV,2,2,07,12,35,083,40,24,47,083,44,25,73,281,44,,,,,0*4F
$GPRMC,165014.00,A,5243.3455027,N,00719.1550158,W,0.16,154.27,080122,0.0,E,R,V*42
$GPGGA,165014.00,5243.3455027,N,00719.1550158,W,5,16,1.0,58.309,M,56.132,M,0.0,0000*61
$GNGSA,A,3,02,12,25,29,31,32,,,,,,,1.4,0.7,1.3,1*3F
$GNGSA,A,3,65,66,74,83,84,85,,,,,,,1.4,0.7,1.3,2*38
$GNGSA,A,3,02,03,08,12,24,25,,,,,,,1.4,0.7,1.3,3*38
$GPGSV,3,1,10,02,29,073,44,03,06,327,00,06,13,028,00,12,39,075,46,0*6F
$GPGSV,3,2,10,24,06,135,00,25,78,070,47,26,10,264,00,29,54,174,45,0*62
$GPGSV,3,3,10,31,46,297,45,32,37,232,43,,,,,,,,,0*68
$GLGSV,2,1,08,65,21,252,39,66,28,317,42,73,05,102,00,74,50,087,46,0*7D
$GLGSV,2,2,08,76,12,290,00,83,16,021,30,84,52,083,35,85,26,159,43,0*71
$GAGSV,2,1,07,02,22,270,00,03,35,248,40,05,10,199,00,08,27,309,37,0*7E
$GAGSV,2,2,07,12,35,083,40,24,47,083,44,25,73,281,44,,,,,0*4F
$GPRMC,165015.00,A,5243.3455085,N,00719.1550145,W,0.16,154.27,080122,0.0,E,R,V*47
$GPGGA,165015.00,5243.3455085,N,00719.1550145,W,5,16,1.0,58.307,M,56.132,M,0.0,0000*6A
$GNGSA,A,3,02,12,25,29,31,32,,,,,,,1.4,0.7,1.3,1*3F
$GNGSA,A,3,65,66,74,83,84,85,,,,,,,1.4,0.7,1.3,2*38
$GNGSA,A,3,02,03,08,12,24,25,,,,,,,1.4,0.7,1.3,3*38
$GPGSV,3,1,10,02,29,073,44,03,06,327,00,06,13,028,00,12,39,075,46,0*6F
$GPGSV,3,2,10,24,06,135,00,25,78,070,47,26,10,264,00,29,54,174,45,0*62
$GPGSV,3,3,10,31,46,297,44,32,37,232,44,,,,,,,,,0*6E
$GLGSV,2,1,08,65,21,252,39,66,28,317,42,73,05,102,00,74,50,087,46,0*7D
$GLGSV,2,2,08,76,12,290,00,83,16,021,30,84,52,083,35,85,26,159,43,0*71
$GAGSV,2,1,07,02,22,270,00,03,35,248,40,05,10,199,00,08,27,309,37,0*7E
$GAGSV,2,2,07,12,35,083,40,24,47,083,44,25,73,281,44,,,,,0*4F
$GPRMC,165016.00,A,5243.3455174,N,00719.1550131,W,0.16,154.27,080122,0.0,E,R,V*48
$GPGGA,165016.00,5243.3455174,N,00719.1550131,W,5,16,1.0,58.310,M,56.132,M,0.0,0000*63
$GNGSA,A,3,02,12,25,29,31,32,,,,,,,1.4,0.7,1.3,1*3F
$GNGSA,A,3,65,66,74,83,84,85,,,,,,,1.4,0.7,1.3,2*38
$GNGSA,A,3,02,03,08,12,24,25,,,,,,,1.4,0.7,1.3,3*38
$GPGSV,3,1,10,02,29,073,43,03,06,327,00,06,13,028,00,12,39,075,46,0*68
$GPGSV,3,2,10,24,06,135,00,25,78,070,47,26,10,264,00,29,54,174,45,0*62
$GPGSV,3,3,10,31,46,297,44,32,37,232,43,,,,,,,,,0*69
$GLGSV,2,1,08,65,21,252,39,66,28,317,42,73,05,102,00,74,50,087,46,0*7D
$GLGSV,2,2,08,76,12,290,00,83,16,021,29,84,52,083,35,85,26,159,43,0*79
$GAGSV,2,1,07,02,22,270,00,03,35,248,40,05,10,199,00,08,27,309,37,0*7E
$GAGSV,2,2,07,12,35,083,40,24,47,083,44,25,73,281,44,,,,,0*4F
$GPRMC,165017.00,A,5243.3455218,N,00719.1550123,W,0.16,154.27,080122,0.0,E,R,V*43
$GPGGA,165017.00,5243.3455218,N,00719.1550123,W,5,16,1.0,58.314,M,56.132,M,0.2,0000*6E
$GNGSA,A,3,02,12,25,29,31,32,,,,,,,1.4,0.7,1.3,1*3F
$GNGSA,A,3,65,66,74,83,84,85,,,,,,,1.4,0.7,1.3,2*38
$GNGSA,A,3,02,03,08,12,24,25,,,,,,,1.4,0.7,1.3,3*38
$GPGSV,3,1,10,02,29,073,43,03,06,327,00,06,13,028,00,12,39,075,46,0*68
$GPGSV,3,2,10,24,06,135,00,25,78,070,47,26,10,264,00,29,54,174,45,0*62
$GPGSV,3,3,10,31,46,297,44,32,37,232,43,,,,,,,,,0*69
$GLGSV,2,1,08,65,21,252,39,66,28,317,42,73,05,102,00,74,50,087,46,0*7D
$GLGSV,2,2,08,76,12,290,00,83,16,021,29,84,52,083,35,85,26,159,43,0*79
$GAGSV,2,1,07,02,22,270,00,03,35,248,40,05,10,199,00,08,27,309,37,0*7E
$GAGSV,2,2,07,12,35,083,40,24,47,083,44,25,73,281,44,,,,,0*4F
$GPRMC,165018.00,A,5243.3455229,N,00719.1550095,W,0.16,154.27,080122,0.0,E,R,V*42
$GPGGA,165018.00,5243.3455229,N,00719.1550095,W,5,16,1.0,58.307,M,56.132,M,0.0,0000*6F
$GNGSA,A,3,02,12,25,29,31,32,,,,,,,1.4,0.7,1.3,1*3F
$GNGSA,A,3,65,66,74,83,84,85,,,,,,,1.4,0.7,1.3,2*38
$GNGSA,A,3,02,03,08,12,24,25,,,,,,,1.4,0.7,1.3,3*38
$GPGSV,3,1,10,02,29,073,44,03,06,327,00,06,13,028,00,12,39,075,46,0*6F
$GPGSV,3,2,10,24,06,135,00,25,78,070,47,26,10,264,00,29,54,174,45,0*62
$GPGSV,3,3,10,31,46,297,44,32,37,232,43,,,,,,,,,0*69
$GLGSV,2,1,08,65,21,252,39,66,28,317,43,73,05,102,00,74,50,087,46,0*7C
$GLGSV,2,2,08,76,12,290,00,83,16,021,29,84,52,083,35,85,26,159,43,0*79
$GAGSV,2,1,07,02,22,270,00,03,35,248,40,05,10,199,00,08,27,309,37,0*7E
$GAGSV,2,2,07,12,35,083,40,24,47,083,44,25,73,281,44,,,,,0*4F
$GPRMC,165019.00,A,5243.3455278,N,00719.1550079,W,0.16,154.27,080122,0.0,E,R,V*45
$GPGGA,165019.00,5243.3455278,N,00719.1550079,W,5,16,1.0,58.303,M,56.132,M,0.0,0000*6C
$GNGSA,A,3,02,12,25,29,31,32,,,,,,,1.4,0.7,1.3,1*3F
$GNGSA,A,3,65,66,74,83,84,85,,,,,,,1.4,0.7,1.3,2*38
$GNGSA,A,3,02,03,08,12,24,25,,,,,,,1.4,0.7,1.3,3*38
$GPGSV,3,1,10,02,29,073,43,03,06,327,00,06,13,028,00,12,39,075,46,0*68
$GPGSV,3,2,10,24,06,135,00,25,78,070,47,26,10,264,00,29,54,174,45,0*62
$GPGSV,3,3,10,31,46,297,44,32,37,232,43,,,,,,,,,0*69
$GLGSV,2,1,08,65,21,252,39,66,28,317,43,73,05,102,00,74,50,087,46,0*7C
$GLGSV,2,2,08,76,12,290,00,83,16,021,29,84,52,083,35,85,26,159,43,0*79
$GAGSV,2,1,07,02,22,270,00,03,35,248,40,05,10,199,00,08,27,309,37,0*7E
$GAGSV,2,2,07,12,35,083,40,24,47,083,44,25,73,281,44,,,,,0*4F
$GPRMC,165020.00,A,5243.3455320,N,00719.1550059,W,0.16,154.27,080122,0.0,E,R,V*41
$GPGGA,165020.00,5243.3455320,N,00719.1550059,W,5,16,1.0,58.301,M,56.132,M,0.0,0000*6A
$GNGSA,A,3,02,12,25,29,31,32,,,,,,,1.4,0.7,1.3,1*3F
$GNGSA,A,3,65,66,74,83,84,85,,,,,,,1.4,0.7,1.3,2*38
$GNGSA,A,3,02,03,08,12,24,25,,,,,,,1.4,0.7,1.3,3*38
$GPGSV,3,1,10,02,29,073,43,03,06,327,00,06,13,028,00,12,39,075,46,0*68
$GPGSV,3,2,10,24,06,135,00,25,78,070,47,26,10,264,00,29,54,174,45,0*62
$GPGSV,3,3,10,31,46,297,44,32,37,232,43,,,,,,,,,0*69
